{"type": "FeatureCollection", "features": [{"type": "Feature", "geometry": {"type": "Point", "coordinates": [-97.3138016542948, 32.8985461745874]}, "properties": {"OBJECTID": 9, "NAME": "MEDICAL CITY - ALLIANCE", "TYPE": "Hospital", "TSA": "E", "STREET": "3101 N Tarrant Pkway", "CITY": "Fort Worth", "COUNTY": "Tarrant", "ADDRESS": "3101 N Tarrant Pkway", "ZIP": "76177", "LATITUDE": 32.8985461745874, "LONGITUDE": -97.3138016542948, "PFIZER_AVAILABLE": 0, "MODERNA_AVAILABLE": 200, "VACCINES_AVAILABLE": 200, "Total_Shipped": 1600, "PublicPhone": "(817) 639-1001", "WEBSITE": "https://medicalcityhealthcare.com/specialties/emergency-care?location=medical-city-alliance?utm_campaign=corp_listings_mgmt&utm_source=google&utm_medium=business_listing", "RemoveRecord": null, "LAST_UPDATE_VAC": "02/12/2021      ", "LAST_UPDATE_TIME_VAC": "14:12:16        ", "marker-symbol": "circle-15", "marker-color": "#228B22"}}, {"type": "Feature", "geometry": {"type": "Point", "coordinates": [-98.589719514637, 33.096301212486]}, "properties": {"OBJECTID": 17, "NAME": "Graham Heath Care Pllc ", "TYPE": "Medical Practice", "TSA": null, "STREET": "1005 State Highway 16 S", "CITY": "Graham", "COUNTY": "Young", "ADDRESS": "1005 State Highway 16 S", "ZIP": "76450", "LATITUDE": 33.096301212486, "LONGITUDE": -98.589719514637, "PFIZER_AVAILABLE": 0, "MODERNA_AVAILABLE": 20, "VACCINES_AVAILABLE": 20, "Total_Shipped": 200, "PublicPhone": "(940) 282-2512", "WEBSITE": "http://www.grahamhealth.org/", "RemoveRecord": null, "LAST_UPDATE_VAC": "02/12/2021      ", "LAST_UPDATE_TIME_VAC": "10:07:04        ", "marker-symbol": "circle-15", "marker-color": "#228B22"}}, {"type": "Feature", "geometry": {"type": "Point", "coordinates": [-96.9586372826983, 32.9020295259087]}, "properties": {"OBJECTID": 18, "NAME": "MEDICAL CITY - LAS COLINAS", "TYPE": "Hospital", "TSA": "E", "STREET": "6800 N Macarthur Blvd", "CITY": "Irving", "COUNTY": "Dallas", "ADDRESS": "6800 N Macarthur Blvd", "ZIP": "75039", "LATITUDE": 32.9020295259087, "LONGITUDE": -96.9586372826983, "PFIZER_AVAILABLE": 0, "MODERNA_AVAILABLE": 30, "VACCINES_AVAILABLE": 30, "Total_Shipped": 1600, "PublicPhone": "(972) 969-2000", "WEBSITE": "https://medicalcityhealthcare.com/locations/medical-city-las-colinas/?utm_campaign=corp_listings_mgmt&utm_source=google&utm_medium=business_listing", "RemoveRecord": null, "LAST_UPDATE_VAC": "02/17/2021      ", "LAST_UPDATE_TIME_VAC": "13:33:58        ", "marker-symbol": "circle-15", "marker-color": "#228B22"}}, {"type": "Feature", "geometry": {"type": "Point", "coordinates": [-99.177716, 28.669024]}, "properties": {"OBJECTID": 22, "NAME": "S Tx Rhs Inc", "TYPE": "Other", "TSA": null, "STREET": "606 W Leona St", "CITY": "Dilley", "COUNTY": "FRIO", "ADDRESS": "606 W Leona St", "ZIP": "78017", "LATITUDE": 28.669024, "LONGITUDE": -99.177716, "PFIZER_AVAILABLE": 0, "MODERNA_AVAILABLE": 130, "VACCINES_AVAILABLE": 130, "Total_Shipped": 200, "PublicPhone": null, "WEBSITE": null, "RemoveRecord": null, "LAST_UPDATE_VAC": "02/10/2021      ", "LAST_UPDATE_TIME_VAC": "08:56:18        ", "marker-symbol": "circle-15", "marker-color": "#228B22"}}, {"type": "Feature", "geometry": {"type": "Point", "coordinates": [-99.744933443025, 32.3716889100017]}, "properties": {"OBJECTID": 326, "NAME": "Encompass Health Rehabilitation Hospital - Abilene", "TYPE": "Hospital", "TSA": null, "STREET": "6401 Directors Parkway", "CITY": "Abilene", "COUNTY": "Taylor", "ADDRESS": "6401 Directors Parkway", "ZIP": "79606", "LATITUDE": 32.3716889100017, "LONGITUDE": -99.744933443025, "PFIZER_AVAILABLE": 0, "MODERNA_AVAILABLE": 107, "VACCINES_AVAILABLE": 107, "Total_Shipped": 400, "PublicPhone": "Non-Public", "WEBSITE": "http://encompasshealth.com", "RemoveRecord": null, "LAST_UPDATE_VAC": "02/17/2021      ", "LAST_UPDATE_TIME_VAC": "10:01:17        ", "marker-symbol": "circle-15", "marker-color": "#228B22"}}, {"type": "Feature", "geometry": {"type": "Point", "coordinates": [-102.100177324424, 31.9974792618293]}, "properties": {"OBJECTID": 338, "NAME": "Allison Cancer Center", "TYPE": "Medical Practice", "TSA": null, "STREET": "400 Rosalind Grover Pkwy", "CITY": "Midland", "COUNTY": "Midland", "ADDRESS": "400 Rosalind Grover Pkwy", "ZIP": "79701", "LATITUDE": 31.9974792618293, "LONGITUDE": -102.100177324424, "PFIZER_AVAILABLE": 0, "MODERNA_AVAILABLE": 32, "VACCINES_AVAILABLE": 32, "Total_Shipped": 200, "PublicPhone": "(432) 687-1949", "WEBSITE": "https://www.texasoncology.com/cancer-centers/midland/midland-allison-cancer-center/medical-oncology", "RemoveRecord": null, "LAST_UPDATE_VAC": "02/16/2021      ", "LAST_UPDATE_TIME_VAC": "16:56:50        ", "marker-symbol": "circle-15", "marker-color": "#228B22"}}, {"type": "Feature", "geometry": {"type": "Point", "coordinates": [-101.816471087514, 35.1800362098107]}, "properties": {"OBJECTID": 347, "NAME": "Regence Health Network - Ross", "TYPE": "Other", "TSA": null, "STREET": "Ross Street", "CITY": "Amarillo", "COUNTY": "Potter", "ADDRESS": "3113 Ross Street", "ZIP": "79103", "LATITUDE": 35.1800362098107, "LONGITUDE": -101.816471087514, "PFIZER_AVAILABLE": 0, "MODERNA_AVAILABLE": 100, "VACCINES_AVAILABLE": 100, "Total_Shipped": 100, "PublicPhone": null, "WEBSITE": null, "RemoveRecord": null, "LAST_UPDATE_VAC": "02/11/2021      ", "LAST_UPDATE_TIME_VAC": "10:28:38        ", "marker-symbol": "circle-15", "marker-color": "#228B22"}}, {"type": "Feature", "geometry": {"type": "Point", "coordinates": [-97.0966989626627, 32.72103749808]}, "properties": {"OBJECTID": 356, "NAME": "Clinicas Mi Doctor 8 Arlington", "TYPE": "Medical Practice", "TSA": null, "STREET": "941 E Park Row Dr", "CITY": "Arlington", "COUNTY": "Tarrant", "ADDRESS": "941 E Park Row Dr", "ZIP": "76010", "LATITUDE": 32.72103749808, "LONGITUDE": -97.0966989626627, "PFIZER_AVAILABLE": 0, "MODERNA_AVAILABLE": 50, "VACCINES_AVAILABLE": 50, "Total_Shipped": 1400, "PublicPhone": "(817) 522-0221", "WEBSITE": "http://www.clinicasmidoctor.com/", "RemoveRecord": null, "LAST_UPDATE_VAC": "02/15/2021      ", "LAST_UPDATE_TIME_VAC": "10:45:20        ", "marker-symbol": "circle-15", "marker-color": "#228B22"}}, {"type": "Feature", "geometry": {"type": "Point", "coordinates": [-94.135634, 30.068767]}, "properties": {"OBJECTID": 359, "NAME": "BEAUMONT ELITE EMERGENCY CTR LLC", "TYPE": "Medical Practice", "TSA": "R", "STREET": "4004 College Street", "CITY": " Beaumont", "COUNTY": "Jefferson", "ADDRESS": "4004 College Street, Beaumont, TX, 77707", "ZIP": "77707", "LATITUDE": 30.068767, "LONGITUDE": -94.135634, "PFIZER_AVAILABLE": 0, "MODERNA_AVAILABLE": 22, "VACCINES_AVAILABLE": 22, "Total_Shipped": 100, "PublicPhone": "(409) 840-4004", "WEBSITE": "https://beaumontemergencycenter.com/", "RemoveRecord": null, "LAST_UPDATE_VAC": "02/15/2021      ", "LAST_UPDATE_TIME_VAC": "06:38:07        ", "marker-symbol": "circle-15", "marker-color": "#228B22"}}, {"type": "Feature", "geometry": {"type": "Point", "coordinates": [-95.3667231414588, 29.7481423448244]}, "properties": {"OBJECTID": 361, "NAME": "ST. JOSEPH MEDICAL CENTER", "TYPE": "Hospital", "TSA": "Q", "STREET": "1401 St Joseph Pkwy", "CITY": "Houston", "COUNTY": "Harris", "ADDRESS": "1401 St Joseph Pkwy", "ZIP": "77002", "LATITUDE": 29.7481423448244, "LONGITUDE": -95.3667231414588, "PFIZER_AVAILABLE": 0, "MODERNA_AVAILABLE": 6, "VACCINES_AVAILABLE": 6, "Total_Shipped": 3400, "PublicPhone": "713-757-1000", "WEBSITE": "https://www.sjmctx.org/", "RemoveRecord": null, "LAST_UPDATE_VAC": "02/17/2021      ", "LAST_UPDATE_TIME_VAC": "08:26:38        ", "marker-symbol": "circle-15", "marker-color": "#228B22"}}, {"type": "Feature", "geometry": {"type": "Point", "coordinates": [-95.27053, 31.961387]}, "properties": {"OBJECTID": 367, "NAME": "UT HEALTH - JACKSONVILLE", "TYPE": "Hospital", "TSA": "G", "STREET": "501 S Ragsdale St", "CITY": " Jacksonville", "COUNTY": "Cherokee", "ADDRESS": "501 S Ragsdale St, Jacksonville, TX, 75766", "ZIP": "75766", "LATITUDE": 31.961387, "LONGITUDE": -95.27053, "PFIZER_AVAILABLE": 0, "MODERNA_AVAILABLE": 50, "VACCINES_AVAILABLE": 50, "Total_Shipped": 300, "PublicPhone": "(903) 541-5000", "WEBSITE": null, "RemoveRecord": null, "LAST_UPDATE_VAC": "02/11/2021      ", "LAST_UPDATE_TIME_VAC": "11:08:57        ", "marker-symbol": "circle-15", "marker-color": "#228B22"}}, {"type": "Feature", "geometry": {"type": "Point", "coordinates": [-94.796404, 32.161635]}, "properties": {"OBJECTID": 368, "NAME": "UT HEALTH - HENDERSON", "TYPE": "Hospital", "TSA": "G", "STREET": "300 Wilson Street", "CITY": " Henderson", "COUNTY": "Rusk", "ADDRESS": "300 Wilson Street, Henderson, TX, 75652", "ZIP": "75652", "LATITUDE": 32.161635, "LONGITUDE": -94.796404, "PFIZER_AVAILABLE": 0, "MODERNA_AVAILABLE": 100, "VACCINES_AVAILABLE": 100, "Total_Shipped": 400, "PublicPhone": "(903) 657-7541", "WEBSITE": null, "RemoveRecord": null, "LAST_UPDATE_VAC": "02/12/2021      ", "LAST_UPDATE_TIME_VAC": "07:59:30        ", "marker-symbol": "circle-15", "marker-color": "#228B22"}}, {"type": "Feature", "geometry": {"type": "Point", "coordinates": [-97.43459737, 32.73334393]}, "properties": {"OBJECTID": 524, "NAME": "Texas Health Care, P.L.L.C.", "TYPE": "Medical Practice", "TSA": "E", "STREET": "2821 Lackland Rd", "CITY": "Fort Worth", "COUNTY": "Tarrant", "ADDRESS": "2821 Lackland Rd, Suite 300", "ZIP": "76116", "LATITUDE": 32.73334393, "LONGITUDE": -97.43459737, "PFIZER_AVAILABLE": 0, "MODERNA_AVAILABLE": 1, "VACCINES_AVAILABLE": 1, "Total_Shipped": 500, "PublicPhone": null, "WEBSITE": null, "RemoveRecord": null, "LAST_UPDATE_VAC": "02/17/2021      ", "LAST_UPDATE_TIME_VAC": "11:28:20        ", "marker-symbol": "circle-15", "marker-color": "#228B22"}}, {"type": "Feature", "geometry": {"type": "Point", "coordinates": [-96.8430239317566, 32.8277624443214]}, "properties": {"OBJECTID": 538, "NAME": "Bluebonnet Hospice of East Texas, Inc", "TYPE": "Other", "TSA": null, "STREET": "Maple Ave", "CITY": "Dallas", "COUNTY": "Dallas", "ADDRESS": "6400 Maple Ave", "ZIP": "75235", "LATITUDE": 32.8277624443214, "LONGITUDE": -96.8430239317566, "PFIZER_AVAILABLE": 0, "MODERNA_AVAILABLE": 160, "VACCINES_AVAILABLE": 160, "Total_Shipped": 200, "PublicPhone": null, "WEBSITE": null, "RemoveRecord": null, "LAST_UPDATE_VAC": "02/12/2021      ", "LAST_UPDATE_TIME_VAC": "13:24:21        ", "marker-symbol": "circle-15", "marker-color": "#228B22"}}, {"type": "Feature", "geometry": {"type": "Point", "coordinates": [-101.921855687127, 35.1997580869122]}, "properties": {"OBJECTID": 544, "NAME": "Northwest Texas Hospital Pharmacy", "TYPE": "Hospital", "TSA": null, "STREET": "1501 S Coulter St", "CITY": "Amarillo", "COUNTY": "Potter", "ADDRESS": "1501 S Coulter St", "ZIP": "79106", "LATITUDE": 35.1997580869122, "LONGITUDE": -101.921855687127, "PFIZER_AVAILABLE": 2034, "MODERNA_AVAILABLE": 0, "VACCINES_AVAILABLE": 2034, "Total_Shipped": 5100, "PublicPhone": "(806) 354-1000", "WEBSITE": "https://www.nwths.com/?utm_source=google-business&utm_medium=organic&utm_campaign=homepage", "RemoveRecord": null, "LAST_UPDATE_VAC": "02/16/2021      ", "LAST_UPDATE_TIME_VAC": "08:16:58        ", "marker-symbol": "circle-15", "marker-color": "#228B22"}}, {"type": "Feature", "geometry": {"type": "Point", "coordinates": [-98.5856665294205, 33.0897193737944]}, "properties": {"OBJECTID": 550, "NAME": "Young County Family Clinic", "TYPE": "Community Clinic", "TSA": null, "STREET": "820 Montgomery Rd", "CITY": "Graham", "COUNTY": "Young", "ADDRESS": "820 Montgomery Rd Ste 202 Graham 76450", "ZIP": "76450", "LATITUDE": 33.0897193737944, "LONGITUDE": -98.5856665294205, "PFIZER_AVAILABLE": 0, "MODERNA_AVAILABLE": 120, "VACCINES_AVAILABLE": 120, "Total_Shipped": 200, "PublicPhone": null, "WEBSITE": null, "RemoveRecord": null, "LAST_UPDATE_VAC": "02/12/2021      ", "LAST_UPDATE_TIME_VAC": "10:16:30        ", "marker-symbol": "circle-15", "marker-color": "#228B22"}}, {"type": "Feature", "geometry": {"type": "Point", "coordinates": [-97.7842837427096, 26.4670317797091]}, "properties": {"OBJECTID": 565, "NAME": "Su Clinica - Raymondville", "TYPE": "Other", "TSA": null, "STREET": "131 Fm 3168", "CITY": "Raymondville", "COUNTY": "Willacy", "ADDRESS": "131 Fm 3168", "ZIP": "78580", "LATITUDE": 26.4670317797091, "LONGITUDE": -97.7842837427096, "PFIZER_AVAILABLE": 0, "MODERNA_AVAILABLE": 100, "VACCINES_AVAILABLE": 100, "Total_Shipped": 300, "PublicPhone": null, "WEBSITE": null, "RemoveRecord": null, "LAST_UPDATE_VAC": "02/12/2021      ", "LAST_UPDATE_TIME_VAC": "10:12:48        ", "marker-symbol": "circle-15", "marker-color": "#228B22"}}, {"type": "Feature", "geometry": {"type": "Point", "coordinates": [-101.334843179833, 33.9842197690086]}, "properties": {"OBJECTID": 579, "NAME": "Payne Family Pharmacy", "TYPE": "Pharmacy", "TSA": null, "STREET": "200 S Main St", "CITY": "Floydada", "COUNTY": "Floyd", "ADDRESS": "200 S Main St", "ZIP": "79235", "LATITUDE": 33.9842197690086, "LONGITUDE": -101.334843179833, "PFIZER_AVAILABLE": 0, "MODERNA_AVAILABLE": 10, "VACCINES_AVAILABLE": 10, "Total_Shipped": 300, "PublicPhone": "(806) 983-5111", "WEBSITE": "https://www.mygnp.com/pharmacies/payne-family-pharmacy-floydada-tx-79235/?utm_source=google&utm_medium=local&utm_campaign=localmaps&utm_content=4590851", "RemoveRecord": null, "LAST_UPDATE_VAC": "02/16/2021      ", "LAST_UPDATE_TIME_VAC": "14:02:11        ", "marker-symbol": "circle-15", "marker-color": "#228B22"}}, {"type": "Feature", "geometry": {"type": "Point", "coordinates": [-98.5702955, 31.4554935]}, "properties": {"OBJECTID": 600, "NAME": "McMahan Pharmacy Services, Inc", "TYPE": "Pharmacy", "TSA": null, "STREET": "1503 W Front St", "CITY": "Goldthwaite", "COUNTY": "Mills", "ADDRESS": "1503 West Front Street", "ZIP": "76844", "LATITUDE": 31.4554935, "LONGITUDE": -98.5702955, "PFIZER_AVAILABLE": 0, "MODERNA_AVAILABLE": 50, "VACCINES_AVAILABLE": 50, "Total_Shipped": 100, "PublicPhone": "(325) 648-2484", "WEBSITE": null, "RemoveRecord": null, "LAST_UPDATE_VAC": "02/12/2021      ", "LAST_UPDATE_TIME_VAC": "16:37:15        ", "marker-symbol": "circle-15", "marker-color": "#228B22"}}, {"type": "Feature", "geometry": {"type": "Point", "coordinates": [-102.758085, 33.7193]}, "properties": {"OBJECTID": 606, "NAME": "COCHRAN MEMORIAL HOSPITAL", "TYPE": "Hospital", "TSA": "B", "STREET": "201 East Grant", "CITY": " Morton", "COUNTY": "Cochran", "ADDRESS": "201 East Grant, Morton, TX, 79346", "ZIP": "79346", "LATITUDE": 33.7193, "LONGITUDE": -102.758085, "PFIZER_AVAILABLE": 0, "MODERNA_AVAILABLE": 20, "VACCINES_AVAILABLE": 20, "Total_Shipped": 400, "PublicPhone": "(806) 266-5565", "WEBSITE": "https://www.facebook.com/cochranmemorialhospital/", "RemoveRecord": null, "LAST_UPDATE_VAC": "02/17/2021      ", "LAST_UPDATE_TIME_VAC": "09:04:50        ", "marker-symbol": "circle-15", "marker-color": "#228B22"}}, {"type": "Feature", "geometry": {"type": "Point", "coordinates": [-102.653789875402, 32.7216749837257]}, "properties": {"OBJECTID": 610, "NAME": "MEMORIAL HOSPITAL - SEMINOLE", "TYPE": "Hospital", "TSA": "B", "STREET": "209 Nw 8th St", "CITY": "Seminole", "COUNTY": "Gaines", "ADDRESS": "209 Nw 8th St", "ZIP": "79360", "LATITUDE": 32.7216749837257, "LONGITUDE": -102.653789875402, "PFIZER_AVAILABLE": 0, "MODERNA_AVAILABLE": 30, "VACCINES_AVAILABLE": 30, "Total_Shipped": 1200, "PublicPhone": "(432) 758-5811", "WEBSITE": "http://www.seminolehospitaldistrict.com/", "RemoveRecord": null, "LAST_UPDATE_VAC": "02/16/2021      ", "LAST_UPDATE_TIME_VAC": "12:51:08        ", "marker-symbol": "circle-15", "marker-color": "#228B22"}}, {"type": "Feature", "geometry": {"type": "Point", "coordinates": [-94.0011099884292, 30.921822502707]}, "properties": {"OBJECTID": 652, "NAME": "JASPER NEWTON CO CLINIC", "TYPE": "Community Clinic", "TSA": null, "STREET": "139 W. Lamar", "CITY": "Jasper", "COUNTY": "Jasper", "ADDRESS": "139 W. Lamar", "ZIP": "75951", "LATITUDE": 30.921822502707, "LONGITUDE": -94.0011099884292, "PFIZER_AVAILABLE": 0, "MODERNA_AVAILABLE": 397, "VACCINES_AVAILABLE": 397, "Total_Shipped": 5000, "PublicPhone": "(409) 384-6829", "WEBSITE": null, "RemoveRecord": null, "LAST_UPDATE_VAC": "02/12/2021      ", "LAST_UPDATE_TIME_VAC": "16:12:32        ", "marker-symbol": "circle-15", "marker-color": "#228B22"}}, {"type": "Feature", "geometry": {"type": "Point", "coordinates": [-97.39324, 32.7947]}, "properties": {"OBJECTID": 654, "NAME": "Northside Community Health Center", "TYPE": "Community Clinic", "TSA": "E", "STREET": "2332 Beverly Hills Dr.", "CITY": "Fort Worth", "COUNTY": "Tarrant", "ADDRESS": "2332 Beverly Hills Dr.", "ZIP": "76114", "LATITUDE": 32.7947, "LONGITUDE": -97.39324, "PFIZER_AVAILABLE": 0, "MODERNA_AVAILABLE": 15, "VACCINES_AVAILABLE": 15, "Total_Shipped": 100, "PublicPhone": "(817) 625-4254", "WEBSITE": "https://ntachc.org/", "RemoveRecord": null, "LAST_UPDATE_VAC": "02/12/2021      ", "LAST_UPDATE_TIME_VAC": "20:14:09        ", "marker-symbol": "circle-15", "marker-color": "#228B22"}}, {"type": "Feature", "geometry": {"type": "Point", "coordinates": [-96.8335574635417, 33.045061071266]}, "properties": {"OBJECTID": 661, "NAME": "Internal Medicine Associates Of Plano", "TYPE": "Medical Practice", "TSA": null, "STREET": "6124 W Parker Rd Ste 234", "CITY": "Plano", "COUNTY": "Collin", "ADDRESS": "6124 W Parker Rd Ste 234", "ZIP": "75093", "LATITUDE": 33.045061071266, "LONGITUDE": -96.8335574635417, "PFIZER_AVAILABLE": 0, "MODERNA_AVAILABLE": 598, "VACCINES_AVAILABLE": 598, "Total_Shipped": 2400, "PublicPhone": "(972) 468-9999", "WEBSITE": "http://www.planointernist.com/", "RemoveRecord": null, "LAST_UPDATE_VAC": "02/11/2021      ", "LAST_UPDATE_TIME_VAC": "10:33:59        ", "marker-symbol": "circle-15", "marker-color": "#228B22"}}, {"type": "Feature", "geometry": {"type": "Point", "coordinates": [-94.118981, 30.068467]}, "properties": {"OBJECTID": 664, "NAME": "BAPTIST HOSPITAL OF SE TEXAS - BEAUMONT", "TYPE": "Pharmacy", "TSA": "R", "STREET": "3080 College St", "CITY": " Beaumont", "COUNTY": "Jefferson", "ADDRESS": "3080 College St, Beaumont, TX, 77701", "ZIP": "77701", "LATITUDE": 30.068467, "LONGITUDE": -94.118981, "PFIZER_AVAILABLE": 930, "MODERNA_AVAILABLE": 100, "VACCINES_AVAILABLE": 1030, "Total_Shipped": 4100, "PublicPhone": "(409) 212-5000", "WEBSITE": null, "RemoveRecord": null, "LAST_UPDATE_VAC": "02/17/2021      ", "LAST_UPDATE_TIME_VAC": "09:47:26        ", "marker-symbol": "circle-15", "marker-color": "#228B22"}}, {"type": "Feature", "geometry": {"type": "Point", "coordinates": [-99.1341290171204, 29.3371505292639]}, "properties": {"OBJECTID": 683, "NAME": "South Tx Rural Health Services of Hondo", "TYPE": "Other", "TSA": null, "STREET": null, "CITY": "Hondo", "COUNTY": "Medina", "ADDRESS": "2912 Avenue E", "ZIP": "78861", "LATITUDE": 29.3371505292639, "LONGITUDE": -99.1341290171204, "PFIZER_AVAILABLE": 0, "MODERNA_AVAILABLE": 130, "VACCINES_AVAILABLE": 130, "Total_Shipped": 200, "PublicPhone": null, "WEBSITE": null, "RemoveRecord": null, "LAST_UPDATE_VAC": "02/12/2021      ", "LAST_UPDATE_TIME_VAC": "08:14:40        ", "marker-symbol": "circle-15", "marker-color": "#228B22"}}, {"type": "Feature", "geometry": {"type": "Point", "coordinates": [-98.916098139948, 29.1472713597676]}, "properties": {"OBJECTID": 685, "NAME": "South Tx Rural Health Services Devine", "TYPE": "Other", "TSA": null, "STREET": "1010 W HONDO AVE", "CITY": "DEVINE", "COUNTY": "Medina", "ADDRESS": "1010 W HONDO AVE", "ZIP": "78016", "LATITUDE": 29.1472713597676, "LONGITUDE": -98.916098139948, "PFIZER_AVAILABLE": 0, "MODERNA_AVAILABLE": 100, "VACCINES_AVAILABLE": 100, "Total_Shipped": 300, "PublicPhone": "830-879-2502", "WEBSITE": null, "RemoveRecord": null, "LAST_UPDATE_VAC": "02/11/2021      ", "LAST_UPDATE_TIME_VAC": "09:59:07        ", "marker-symbol": "circle-15", "marker-color": "#228B22"}}, {"type": "Feature", "geometry": {"type": "Point", "coordinates": [-99.8653263999465, 28.5152413371109]}, "properties": {"OBJECTID": 686, "NAME": "South Tx Rural Health Services - Carrizo Springs", "TYPE": "Community Clinic", "TSA": null, "STREET": "902 S 5TH ST", "CITY": "CARRIZO SPRINGS", "COUNTY": "Dimmit", "ADDRESS": "902 S 5TH ST", "ZIP": "78834", "LATITUDE": 28.5152413371109, "LONGITUDE": -99.8653263999465, "PFIZER_AVAILABLE": 0, "MODERNA_AVAILABLE": 180, "VACCINES_AVAILABLE": 180, "Total_Shipped": 300, "PublicPhone": "(830)876-5263", "WEBSITE": "http://southtexasruralhealth.com/", "RemoveRecord": null, "LAST_UPDATE_VAC": "02/12/2021      ", "LAST_UPDATE_TIME_VAC": "08:02:30        ", "marker-symbol": "circle-15", "marker-color": "#228B22"}}, {"type": "Feature", "geometry": {"type": "Point", "coordinates": [-99.2362789179092, 28.4364095683834]}, "properties": {"OBJECTID": 687, "NAME": "South Tx Rural Health Serv Cotulla", "TYPE": "Other", "TSA": null, "STREET": "105 S Stewart", "CITY": "Cotulla", "COUNTY": "La Salle", "ADDRESS": "105 S Stewart", "ZIP": "78014", "LATITUDE": 28.4364095683834, "LONGITUDE": -99.2362789179092, "PFIZER_AVAILABLE": 0, "MODERNA_AVAILABLE": 60, "VACCINES_AVAILABLE": 60, "Total_Shipped": 300, "PublicPhone": null, "WEBSITE": null, "RemoveRecord": null, "LAST_UPDATE_VAC": "02/12/2021      ", "LAST_UPDATE_TIME_VAC": "08:44:13        ", "marker-symbol": "circle-15", "marker-color": "#228B22"}}, {"type": "Feature", "geometry": {"type": "Point", "coordinates": [-99.394403, 32.394876]}, "properties": {"OBJECTID": 696, "NAME": "ResourceCare Baird", "TYPE": "Medical Practice", "TSA": null, "STREET": "West 4th St", "CITY": "Baird", "COUNTY": "Callahan", "ADDRESS": "128 West 4th Street", "ZIP": "79504", "LATITUDE": 32.394876, "LONGITUDE": -99.394403, "PFIZER_AVAILABLE": 0, "MODERNA_AVAILABLE": 40, "VACCINES_AVAILABLE": 40, "Total_Shipped": 200, "PublicPhone": "325-854-1365", "WEBSITE": null, "RemoveRecord": null, "LAST_UPDATE_VAC": "02/12/2021      ", "LAST_UPDATE_TIME_VAC": "10:34:26        ", "marker-symbol": "circle-15", "marker-color": "#228B22"}}, {"type": "Feature", "geometry": {"type": "Point", "coordinates": [-94.6530319539146, 31.6141083192146]}, "properties": {"OBJECTID": 721, "NAME": "Kroger Pharmacy 990", "TYPE": "Pharmacy", "TSA": null, "STREET": "1215 North St", "CITY": "Nacogdoches", "COUNTY": "Nacogdoches", "ADDRESS": "1215 North St", "ZIP": "75961", "LATITUDE": 31.6141083192146, "LONGITUDE": -94.6530319539146, "PFIZER_AVAILABLE": 0, "MODERNA_AVAILABLE": 50, "VACCINES_AVAILABLE": 50, "Total_Shipped": 300, "PublicPhone": "(936) 569-9884", "WEBSITE": "http://www.kroger.com/stores/details/035/00990?cid=loc_03500990PP_gmb", "RemoveRecord": null, "LAST_UPDATE_VAC": "02/09/2021      ", "LAST_UPDATE_TIME_VAC": "00:00:00        ", "marker-symbol": "circle-15", "marker-color": "#228B22"}}, {"type": "Feature", "geometry": {"type": "Point", "coordinates": [-97.1188887102149, 32.7618374595243]}, "properties": {"OBJECTID": 764, "NAME": "Kroger Pharmacy 543", "TYPE": "Pharmacy", "TSA": null, "STREET": "945 W Lamar Blvd", "CITY": "Arlington", "COUNTY": "Tarrant", "ADDRESS": "945 W Lamar Blvd", "ZIP": "76012", "LATITUDE": 32.7618374595243, "LONGITUDE": -97.1188887102149, "PFIZER_AVAILABLE": 0, "MODERNA_AVAILABLE": 300, "VACCINES_AVAILABLE": 300, "Total_Shipped": 700, "PublicPhone": "(817) 277-2144", "WEBSITE": "http://www.kroger.com/stores/details/035/00543?cid=loc_03500543PP_gmb", "RemoveRecord": null, "LAST_UPDATE_VAC": "02/09/2021      ", "LAST_UPDATE_TIME_VAC": "00:00:00        ", "marker-symbol": "circle-15", "marker-color": "#228B22"}}, {"type": "Feature", "geometry": {"type": "Point", "coordinates": [-95.3288099893037, 32.3465629398576]}, "properties": {"OBJECTID": 858, "NAME": "DSHS - HSR 4/5N - Tyler", "TYPE": "Local Health Department", "TSA": null, "STREET": "2521 West Front Street", "CITY": "Tyler", "COUNTY": "Smith", "ADDRESS": "2521 West Front Street", "ZIP": "75702", "LATITUDE": 32.3465629398576, "LONGITUDE": -95.3288099893037, "PFIZER_AVAILABLE": 0, "MODERNA_AVAILABLE": 500, "VACCINES_AVAILABLE": 500, "Total_Shipped": 3500, "PublicPhone": "(903) 595-3585", "WEBSITE": "http://www.dshs.state.tx.us/", "RemoveRecord": null, "LAST_UPDATE_VAC": "02/17/2021      ", "LAST_UPDATE_TIME_VAC": "07:24:41        ", "marker-symbol": "circle-15", "marker-color": "#228B22"}}, {"type": "Feature", "geometry": {"type": "Point", "coordinates": [-97.70392, 30.384204]}, "properties": {"OBJECTID": 873, "NAME": "North Austin Medical Center (St. David's)", "TYPE": "Hospital", "TSA": "O", "STREET": "12221 Mopac Exp North", "CITY": "Austin", "COUNTY": "Travis", "ADDRESS": "12221 N MoPAC Expwy, Austin, TX, 78758", "ZIP": "78758", "LATITUDE": 30.384204, "LONGITUDE": -97.70392, "PFIZER_AVAILABLE": 10, "MODERNA_AVAILABLE": 0, "VACCINES_AVAILABLE": 10, "Total_Shipped": 6400, "PublicPhone": "512-901-1000", "WEBSITE": "http://www.stdavids.com/medical-services/pediatrics?utm_campaign=corp_listings_mgmt&utm_source=google&utm_medium=business_listing", "RemoveRecord": null, "LAST_UPDATE_VAC": "02/16/2021      ", "LAST_UPDATE_TIME_VAC": "14:39:55        ", "marker-symbol": "circle-15", "marker-color": "#228B22"}}, {"type": "Feature", "geometry": {"type": "Point", "coordinates": [-95.40466, 29.704584]}, "properties": {"OBJECTID": 884, "NAME": "Texas Childrens Hospital Main", "TYPE": "Hospital", "TSA": "Q", "STREET": "6621 Fannin St", "CITY": "Houston", "COUNTY": "Harris", "ADDRESS": "6621 Fannin St, Houston, TX, 77030", "ZIP": "77030", "LATITUDE": 29.704584, "LONGITUDE": -95.40466, "PFIZER_AVAILABLE": 2998, "MODERNA_AVAILABLE": 352, "VACCINES_AVAILABLE": 3350, "Total_Shipped": 36925, "PublicPhone": "(832) 824-1000", "WEBSITE": "https://www.texaschildrens.org/covidvaccine", "RemoveRecord": null, "LAST_UPDATE_VAC": "02/17/2021      ", "LAST_UPDATE_TIME_VAC": "07:53:11        ", "marker-symbol": "circle-15", "marker-color": "#228B22"}}, {"type": "Feature", "geometry": {"type": "Point", "coordinates": [-97.326396, 32.727343]}, "properties": {"OBJECTID": 887, "NAME": "JPS MAIN", "TYPE": "Hospital", "TSA": "E", "STREET": "1575 S Main St", "CITY": " Fort Worth", "COUNTY": "Tarrant", "ADDRESS": "1575 S Main St, Fort Worth, TX, 76104", "ZIP": "76104", "LATITUDE": 32.727343, "LONGITUDE": -97.326396, "PFIZER_AVAILABLE": 1500, "MODERNA_AVAILABLE": 0, "VACCINES_AVAILABLE": 1500, "Total_Shipped": 43000, "PublicPhone": "817-702-3431", "WEBSITE": null, "RemoveRecord": null, "LAST_UPDATE_VAC": "02/14/2021      ", "LAST_UPDATE_TIME_VAC": "18:00:51        ", "marker-symbol": "circle-15", "marker-color": "#228B22"}}, {"type": "Feature", "geometry": {"type": "Point", "coordinates": [-94.8701751, 32.373062]}, "properties": {"OBJECTID": 889, "NAME": "Wellness Pointe-Kilgore 040545", "TYPE": "Community Clinic", "TSA": null, "STREET": null, "CITY": "Kilgore", "COUNTY": null, "ADDRESS": "1711 S Henderson Blvd Ste 400", "ZIP": "75662", "LATITUDE": 32.373062, "LONGITUDE": -94.8701751, "PFIZER_AVAILABLE": 0, "MODERNA_AVAILABLE": 100, "VACCINES_AVAILABLE": 100, "Total_Shipped": 100, "PublicPhone": "(903) 212-2610", "WEBSITE": "covidkilgore@wellnesspointe.org", "RemoveRecord": null, "LAST_UPDATE_VAC": "02/15/2021      ", "LAST_UPDATE_TIME_VAC": "15:14:25        ", "marker-symbol": "circle-15", "marker-color": "#228B22"}}, {"type": "Feature", "geometry": {"type": "Point", "coordinates": [-95.6739674, 29.9466955]}, "properties": {"OBJECTID": 894, "NAME": "Texas Wellmed Clinic Pllc", "TYPE": "Medical Practice", "TSA": "Q", "STREET": "12246 Queenston Blvd", "CITY": "Houston", "COUNTY": "Harris", "ADDRESS": "12246 Queenston Blvd STE A", "ZIP": "77095", "LATITUDE": 29.9466955, "LONGITUDE": -95.6739674, "PFIZER_AVAILABLE": 0, "MODERNA_AVAILABLE": 170, "VACCINES_AVAILABLE": 170, "Total_Shipped": 400, "PublicPhone": "(281) 246-4668", "WEBSITE": null, "RemoveRecord": null, "LAST_UPDATE_VAC": "02/16/2021      ", "LAST_UPDATE_TIME_VAC": "21:26:45        ", "marker-symbol": "circle-15", "marker-color": "#228B22"}}, {"type": "Feature", "geometry": {"type": "Point", "coordinates": [-103.4866089, 31.4092724]}, "properties": {"OBJECTID": 895, "NAME": "United pharmacy 663", "TYPE": "Pharmacy", "TSA": null, "STREET": "2783 S Cedar St", "CITY": "Pecos", "COUNTY": "Reeves", "ADDRESS": "2783 South Cedar Street, Pecos, TX, USA", "ZIP": "79772", "LATITUDE": 31.4092724, "LONGITUDE": -103.4866089, "PFIZER_AVAILABLE": 0, "MODERNA_AVAILABLE": 90, "VACCINES_AVAILABLE": 90, "Total_Shipped": 100, "PublicPhone": null, "WEBSITE": null, "RemoveRecord": null, "LAST_UPDATE_VAC": "02/17/2021      ", "LAST_UPDATE_TIME_VAC": "11:32:19        ", "marker-symbol": "circle-15", "marker-color": "#228B22"}}, {"type": "Feature", "geometry": {"type": "Point", "coordinates": [-97.6812145010016, 26.1658348358078]}, "properties": {"OBJECTID": 924, "NAME": "DSHS - Raymondville", "TYPE": "Local Health Department", "TSA": null, "STREET": "601 W Sesame Drive", "CITY": "Harlingen", "COUNTY": "Cameron", "ADDRESS": "601 W Sesame Drive", "ZIP": "78550", "LATITUDE": 26.1658348358078, "LONGITUDE": -97.6812145010016, "PFIZER_AVAILABLE": 0, "MODERNA_AVAILABLE": 100, "VACCINES_AVAILABLE": 100, "Total_Shipped": 1900, "PublicPhone": "(956) 689-5906", "WEBSITE": "https://www.dshs.texas.gov/", "RemoveRecord": null, "LAST_UPDATE_VAC": "02/12/2021      ", "LAST_UPDATE_TIME_VAC": "09:12:05        ", "marker-symbol": "circle-15", "marker-color": "#228B22"}}, {"type": "Feature", "geometry": {"type": "Point", "coordinates": [-99.2832826439792, 34.1552500670402]}, "properties": {"OBJECTID": 926, "NAME": "DSHS - Vernon", "TYPE": "Local Health Department", "TSA": null, "STREET": "1531 Cumberland St", "CITY": "Vernon", "COUNTY": "Wilbarger", "ADDRESS": "1531 Cumberland St", "ZIP": "76384", "LATITUDE": 34.1552500670402, "LONGITUDE": -99.2832826439792, "PFIZER_AVAILABLE": 0, "MODERNA_AVAILABLE": 150, "VACCINES_AVAILABLE": 150, "Total_Shipped": 600, "PublicPhone": "(877) 501-2233", "WEBSITE": "http://www.dshs.wa.gov/", "RemoveRecord": null, "LAST_UPDATE_VAC": "02/11/2021      ", "LAST_UPDATE_TIME_VAC": "14:38:50        ", "marker-symbol": "circle-15", "marker-color": "#228B22"}}, {"type": "Feature", "geometry": {"type": "Point", "coordinates": [-95.4659296542603, 30.2796149675624]}, "properties": {"OBJECTID": 945, "NAME": "Dept of Public Health - Montgomery County / Conroe", "TYPE": "Local Health Department", "TSA": null, "STREET": "1300 South Loop 336 West", "CITY": "Conroe", "COUNTY": "Montgomery", "ADDRESS": "1300 South Loop 336 West", "ZIP": "77304", "LATITUDE": 30.2796149675624, "LONGITUDE": -95.4659296542603, "PFIZER_AVAILABLE": 0, "MODERNA_AVAILABLE": 800, "VACCINES_AVAILABLE": 800, "Total_Shipped": 2600, "PublicPhone": "(936) 523-5020", "WEBSITE": "https://www.mcphd-tx.org/", "RemoveRecord": null, "LAST_UPDATE_VAC": "02/12/2021      ", "LAST_UPDATE_TIME_VAC": "17:58:41        ", "marker-symbol": "circle-15", "marker-color": "#228B22"}}, {"type": "Feature", "geometry": {"type": "Point", "coordinates": [-97.6774061, 30.6406296]}, "properties": {"OBJECTID": 948, "NAME": "Dept of Public Health - Williamson County / Georgetown", "TYPE": "Local Health Department", "TSA": "O", "STREET": "100 West #3rd Street ", "CITY": "Georgetown", "COUNTY": "Williamson", "ADDRESS": "100 West 3rd Street, Georgetown, TX, USA", "ZIP": "78626", "LATITUDE": 30.6406296, "LONGITUDE": -97.6774061, "PFIZER_AVAILABLE": 0, "MODERNA_AVAILABLE": 450, "VACCINES_AVAILABLE": 450, "Total_Shipped": 700, "PublicPhone": "(512) 943-3640", "WEBSITE": null, "RemoveRecord": null, "LAST_UPDATE_VAC": "02/17/2021      ", "LAST_UPDATE_TIME_VAC": "07:58:25        ", "marker-symbol": "circle-15", "marker-color": "#228B22"}}, {"type": "Feature", "geometry": {"type": "Point", "coordinates": [-99.334246, 31.110567]}, "properties": {"OBJECTID": 949, "NAME": "Frontera Healthcare-Brady", "TYPE": "Other", "TSA": null, "STREET": null, "CITY": "Brady", "COUNTY": "Mcculloch", "ADDRESS": "2205 S Bridge St Ste 300", "ZIP": "76825", "LATITUDE": 31.110567, "LONGITUDE": -99.334246, "PFIZER_AVAILABLE": 0, "MODERNA_AVAILABLE": 60, "VACCINES_AVAILABLE": 60, "Total_Shipped": 400, "PublicPhone": null, "WEBSITE": null, "RemoveRecord": null, "LAST_UPDATE_VAC": "02/12/2021      ", "LAST_UPDATE_TIME_VAC": "12:59:11        ", "marker-symbol": "circle-15", "marker-color": "#228B22"}}, {"type": "Feature", "geometry": {"type": "Point", "coordinates": [-97.3258634644214, 32.732359521432]}, "properties": {"OBJECTID": 952, "NAME": "Dept of Public Health - Tarrant County / La Gran Plaza Health Center", "TYPE": "Local Health Department", "TSA": null, "STREET": "1101 S Main St", "CITY": "Fort Worth", "COUNTY": "Tarrant", "ADDRESS": "1101 S Main St", "ZIP": "76104", "LATITUDE": 32.732359521432, "LONGITUDE": -97.3258634644214, "PFIZER_AVAILABLE": 0, "MODERNA_AVAILABLE": 100, "VACCINES_AVAILABLE": 100, "Total_Shipped": 600, "PublicPhone": "(817) 920-5752", "WEBSITE": "http://access.tarrantcounty.com/en/public-health/public-health-locations/lagran-plaza-mall-public-health-center.html", "RemoveRecord": null, "LAST_UPDATE_VAC": "02/16/2021      ", "LAST_UPDATE_TIME_VAC": "10:56:33        ", "marker-symbol": "circle-15", "marker-color": "#228B22"}}, {"type": "Feature", "geometry": {"type": "Point", "coordinates": [-94.314720823576, 30.3671804863807]}, "properties": {"OBJECTID": 955, "NAME": "Dept of Public Health - Hardin County / Kountze", "TYPE": "Local Health Department", "TSA": null, "STREET": "1135 Redwood St, Kountze, TX 77625", "CITY": "Kountze", "COUNTY": "Hardin", "ADDRESS": "1135 Redwood", "ZIP": "77625", "LATITUDE": 30.3671804863807, "LONGITUDE": -94.314720823576, "PFIZER_AVAILABLE": 0, "MODERNA_AVAILABLE": 640, "VACCINES_AVAILABLE": 640, "Total_Shipped": 1800, "PublicPhone": "(409) 246-5188", "WEBSITE": "http://www.co.hardin.tx.us/", "RemoveRecord": null, "LAST_UPDATE_VAC": "02/17/2021      ", "LAST_UPDATE_TIME_VAC": "05:23:45        ", "marker-symbol": "circle-15", "marker-color": "#228B22"}}, {"type": "Feature", "geometry": {"type": "Point", "coordinates": [-102.367078830659, 31.846938143413]}, "properties": {"OBJECTID": 959, "NAME": "Dept of Public Health - Ector County / Odessa", "TYPE": "Local Health Department", "TSA": null, "STREET": "221 N Texas", "CITY": "Odessa", "COUNTY": "Ector", "ADDRESS": "221 N Texas", "ZIP": "79761", "LATITUDE": 31.846938143413, "LONGITUDE": -102.367078830659, "PFIZER_AVAILABLE": 2, "MODERNA_AVAILABLE": 0, "VACCINES_AVAILABLE": 2, "Total_Shipped": 1200, "PublicPhone": "(432) 498-4141", "WEBSITE": "http://www.co.ector.tx.us/", "RemoveRecord": null, "LAST_UPDATE_VAC": "02/10/2021      ", "LAST_UPDATE_TIME_VAC": "19:17:47        ", "marker-symbol": "circle-15", "marker-color": "#228B22"}}, {"type": "Feature", "geometry": {"type": "Point", "coordinates": [-95.3412740310678, 29.8370686670095]}, "properties": {"OBJECTID": 983, "NAME": "Dept of Public Health - City of Houston / Northside Health Center", "TYPE": "Local Health Department", "TSA": null, "STREET": "8504 Schuller", "CITY": "Houston", "COUNTY": "Harris", "ADDRESS": "8504 Schuller", "ZIP": "77093", "LATITUDE": 29.8370686670095, "LONGITUDE": -95.3412740310678, "PFIZER_AVAILABLE": 0, "MODERNA_AVAILABLE": 320, "VACCINES_AVAILABLE": 320, "Total_Shipped": 1900, "PublicPhone": "(832) 395-9100", "WEBSITE": null, "RemoveRecord": null, "LAST_UPDATE_VAC": "02/17/2021      ", "LAST_UPDATE_TIME_VAC": "10:42:51        ", "marker-symbol": "circle-15", "marker-color": "#228B22"}}, {"type": "Feature", "geometry": {"type": "Point", "coordinates": [-98.1236067405545, 29.7150342211664]}, "properties": {"OBJECTID": 1003, "NAME": "CHRISTUS SANTA ROSA NEW BRAUNFELS", "TYPE": "Hospital", "TSA": "P", "STREET": "600 North Union Ave", "CITY": "New Braunfels", "COUNTY": "Comal", "ADDRESS": "600 North Union Ave", "ZIP": "78130", "LATITUDE": 29.7150342211664, "LONGITUDE": -98.1236067405545, "PFIZER_AVAILABLE": 0, "MODERNA_AVAILABLE": 100, "VACCINES_AVAILABLE": 100, "Total_Shipped": 1100, "PublicPhone": "(830) 606-9111", "WEBSITE": "https://www.christushealth.org/santa-rosa/new-braunfels?utm_source=organic&utm_medium=GMB&utm_campaign=website&y_source=1_MTUzNzY2MDYtNzE1LWxvY2F0aW9uLmdvb2dsZV93ZWJzaXRlX292ZXJyaWRl", "RemoveRecord": null, "LAST_UPDATE_VAC": "02/17/2021      ", "LAST_UPDATE_TIME_VAC": "08:42:50        ", "marker-symbol": "circle-15", "marker-color": "#228B22"}}, {"type": "Feature", "geometry": {"type": "Point", "coordinates": [-95.2920778073799, 32.3422646579996]}, "properties": {"OBJECTID": 1037, "NAME": "CHRISTUS MOTHER FRANCES - TYLER", "TYPE": "Hospital", "TSA": "G", "STREET": "800 E Dawson", "CITY": "Tyler", "COUNTY": "Smith", "ADDRESS": "800 E Dawson", "ZIP": "75701", "LATITUDE": 32.3422646579996, "LONGITUDE": -95.2920778073799, "PFIZER_AVAILABLE": 25, "MODERNA_AVAILABLE": 390, "VACCINES_AVAILABLE": 415, "Total_Shipped": 15000, "PublicPhone": "(903) 593-8441", "WEBSITE": "https://www.christushealth.org/trinity/tyler?utm_source=organic&utm_medium=GMB&utm_campaign=website&y_source=1_MTE3ODE0OTItNzE1LWxvY2F0aW9uLmdvb2dsZV93ZWJzaXRlX292ZXJyaWRl", "RemoveRecord": null, "LAST_UPDATE_VAC": "02/11/2021      ", "LAST_UPDATE_TIME_VAC": "12:35:38        ", "marker-symbol": "circle-15", "marker-color": "#228B22"}}, {"type": "Feature", "geometry": {"type": "Point", "coordinates": [-95.277643, 32.314985]}, "properties": {"OBJECTID": 1038, "NAME": "CHRISTUS MOTHER FRANCES - REHAB HOSPITAL", "TYPE": "Hospital", "TSA": "G", "STREET": "3131 Troup Highway", "CITY": " Tyler", "COUNTY": "Smith", "ADDRESS": "3131 Troup Highway, Tyler, TX, 75701", "ZIP": "75701", "LATITUDE": 32.314985, "LONGITUDE": -95.277643, "PFIZER_AVAILABLE": 0, "MODERNA_AVAILABLE": 20, "VACCINES_AVAILABLE": 20, "Total_Shipped": 200, "PublicPhone": "(903) 510-7000", "WEBSITE": null, "RemoveRecord": null, "LAST_UPDATE_VAC": "02/17/2021      ", "LAST_UPDATE_TIME_VAC": "09:40:25        ", "marker-symbol": "circle-15", "marker-color": "#228B22"}}, {"type": "Feature", "geometry": {"type": "Point", "coordinates": [-96.35028881, 30.66115361]}, "properties": {"OBJECTID": 1044, "NAME": "Chi St Joseph Health Rehabilitation Hos", "TYPE": "Other", "TSA": "N", "STREET": "1600 Joseph Dr.", "CITY": "Bryan", "COUNTY": "Brazos", "ADDRESS": "1600 Joseph Dr.", "ZIP": "77802", "LATITUDE": 30.66115361, "LONGITUDE": -96.35028881, "PFIZER_AVAILABLE": 0, "MODERNA_AVAILABLE": 2, "VACCINES_AVAILABLE": 2, "Total_Shipped": 100, "PublicPhone": "979-213-4300", "WEBSITE": null, "RemoveRecord": null, "LAST_UPDATE_VAC": "02/12/2021      ", "LAST_UPDATE_TIME_VAC": "16:29:31        ", "marker-symbol": "circle-15", "marker-color": "#228B22"}}, {"type": "Feature", "geometry": {"type": "Point", "coordinates": [-95.2007687907671, 29.925564285333]}, "properties": {"OBJECTID": 1072, "NAME": "Memorial Hermann Medical Group Summer Creek", "TYPE": "Medical Practice", "TSA": null, "STREET": "14201 E Sam Houston Pkwy N", "CITY": "Houston", "COUNTY": "Harris", "ADDRESS": "14201 E Sam Houston Pkwy N", "ZIP": "77044", "LATITUDE": 29.925564285333, "LONGITUDE": -95.2007687907671, "PFIZER_AVAILABLE": 0, "MODERNA_AVAILABLE": 1300, "VACCINES_AVAILABLE": 1300, "Total_Shipped": 3000, "PublicPhone": "(281) 436-8888", "WEBSITE": "https://www.memorialhermann.org/locations/convenient-care-summer-creek", "RemoveRecord": null, "LAST_UPDATE_VAC": "01/14/2021      ", "LAST_UPDATE_TIME_VAC": "17:04:43        ", "marker-symbol": "circle-15", "marker-color": "#228B22"}}, {"type": "Feature", "geometry": {"type": "Point", "coordinates": [-106.350195261813, 31.7560467132164]}, "properties": {"OBJECTID": 1112, "NAME": "DEL SOL MEDICAL CENTER", "TYPE": "Hospital", "TSA": "I", "STREET": "10301 Gateway Blvd W", "CITY": "El Paso", "COUNTY": "El Paso", "ADDRESS": "10301 Gateway Blvd W", "ZIP": "79925", "LATITUDE": 31.7560467132164, "LONGITUDE": -106.350195261813, "PFIZER_AVAILABLE": 0, "MODERNA_AVAILABLE": 270, "VACCINES_AVAILABLE": 270, "Total_Shipped": 4550, "PublicPhone": "915.263.6696", "WEBSITE": "https://laspalmasdelsolhealthcare.com/covid-19/covid-19-vaccine-information/", "RemoveRecord": null, "LAST_UPDATE_VAC": "02/17/2021      ", "LAST_UPDATE_TIME_VAC": "09:08:52        ", "marker-symbol": "circle-15", "marker-color": "#228B22"}}, {"type": "Feature", "geometry": {"type": "Point", "coordinates": [-97.71439, 30.518975]}, "properties": {"OBJECTID": 1116, "NAME": "ST. DAVID'S ROUND ROCK MC", "TYPE": "Hospital", "TSA": "O", "STREET": "2400 Round Rock Ave", "CITY": "Round Rock", "COUNTY": "Williamson", "ADDRESS": "2400 Round Rock Avenue, Round Rock, TX, 78681", "ZIP": "78681", "LATITUDE": 30.518975, "LONGITUDE": -97.71439, "PFIZER_AVAILABLE": 666, "MODERNA_AVAILABLE": 0, "VACCINES_AVAILABLE": 666, "Total_Shipped": 3900, "PublicPhone": "512.816.0004", "WEBSITE": "https://stdavids.com/covid-19/covid-19-vaccine-information/", "RemoveRecord": null, "LAST_UPDATE_VAC": "02/16/2021      ", "LAST_UPDATE_TIME_VAC": "20:54:20        ", "marker-symbol": "circle-15", "marker-color": "#228B22"}}, {"type": "Feature", "geometry": {"type": "Point", "coordinates": [-97.73856, 30.292424]}, "properties": {"OBJECTID": 1118, "NAME": "ST. DAVID'S MC", "TYPE": "Hospital", "TSA": "O", "STREET": "919 E 32nd St", "CITY": "Austin", "COUNTY": "Travis", "ADDRESS": "919 E 32nd St, Austin, TX, 78705", "ZIP": "78705", "LATITUDE": 30.292424, "LONGITUDE": -97.73856, "PFIZER_AVAILABLE": 234, "MODERNA_AVAILABLE": 0, "VACCINES_AVAILABLE": 234, "Total_Shipped": 6700, "PublicPhone": "512.816.0004", "WEBSITE": "https://stdavids.com/covid-19/covid-19-vaccine-information/", "RemoveRecord": null, "LAST_UPDATE_VAC": "02/17/2021      ", "LAST_UPDATE_TIME_VAC": "09:26:20        ", "marker-symbol": "circle-15", "marker-color": "#228B22"}}, {"type": "Feature", "geometry": {"type": "Point", "coordinates": [-97.7744468291171, 30.2272731113373]}, "properties": {"OBJECTID": 1119, "NAME": "ST. DAVID'S SOUTH AUSTIN Medical Center", "TYPE": "Hospital", "TSA": "O", "STREET": "901 W Ben White Blvd", "CITY": "Austin", "COUNTY": "Travis", "ADDRESS": "901 W Ben White Blvd", "ZIP": "78704", "LATITUDE": 30.2272731113373, "LONGITUDE": -97.7744468291171, "PFIZER_AVAILABLE": 10, "MODERNA_AVAILABLE": 0, "VACCINES_AVAILABLE": 10, "Total_Shipped": 4500, "PublicPhone": "512.816.0004", "WEBSITE": "https://stdavids.com/covid-19/covid-19-vaccine-information/", "RemoveRecord": null, "LAST_UPDATE_VAC": "02/15/2021      ", "LAST_UPDATE_TIME_VAC": "13:57:59        ", "marker-symbol": "circle-15", "marker-color": "#228B22"}}, {"type": "Feature", "geometry": {"type": "Point", "coordinates": [-98.1827475215229, 26.263257738325]}, "properties": {"OBJECTID": 1136, "NAME": "EDINBURG REGIONAL MEDICAL CENTER (STHS)", "TYPE": "Pharmacy", "TSA": "V", "STREET": "1102 W Trenton Road", "CITY": "Edinburg", "COUNTY": "Hidalgo", "ADDRESS": "1102 W Trenton Road", "ZIP": "78539", "LATITUDE": 26.263257738325, "LONGITUDE": -98.1827475215229, "PFIZER_AVAILABLE": 0, "MODERNA_AVAILABLE": 100, "VACCINES_AVAILABLE": 100, "Total_Shipped": 3000, "PublicPhone": "(956) 388-6000", "WEBSITE": "https://southtexashealthsystemedinburg.com/?utm_source=google-business&utm_medium=organic&utm_campaign=homepage", "RemoveRecord": null, "LAST_UPDATE_VAC": "02/17/2021      ", "LAST_UPDATE_TIME_VAC": "08:53:02        ", "marker-symbol": "circle-15", "marker-color": "#228B22"}}, {"type": "Feature", "geometry": {"type": "Point", "coordinates": [-93.9886543964915, 29.933825070008]}, "properties": {"OBJECTID": 1146, "NAME": "MEDICAL CENTER OF SOUTHEAST TEXAS", "TYPE": "Hospital", "TSA": "R", "STREET": "2555 Jimmy Johnson Blvd", "CITY": "Port Arthur", "COUNTY": "Jefferson", "ADDRESS": "2555 Jimmy Johnson Blvd", "ZIP": "77640", "LATITUDE": 29.933825070008, "LONGITUDE": -93.9886543964915, "PFIZER_AVAILABLE": 0, "MODERNA_AVAILABLE": 210, "VACCINES_AVAILABLE": 210, "Total_Shipped": 3450, "PublicPhone": "(409) 724-7389", "WEBSITE": "https://www.medicalcentersetexas.org/", "RemoveRecord": null, "LAST_UPDATE_VAC": "02/17/2021      ", "LAST_UPDATE_TIME_VAC": "09:31:50        ", "marker-symbol": "circle-15", "marker-color": "#228B22"}}, {"type": "Feature", "geometry": {"type": "Point", "coordinates": [-96.2629471143069, 32.7392173431534]}, "properties": {"OBJECTID": 1163, "NAME": "TERRELL STATE HOSPITAL", "TYPE": "Hospital", "TSA": "E", "STREET": "1200 E Brin St", "CITY": "Terrell", "COUNTY": "Kaufman", "ADDRESS": "1200 E Brin St", "ZIP": "75160", "LATITUDE": 32.7392173431534, "LONGITUDE": -96.2629471143069, "PFIZER_AVAILABLE": 0, "MODERNA_AVAILABLE": 10, "VACCINES_AVAILABLE": 10, "Total_Shipped": 2350, "PublicPhone": "972-524-6452", "WEBSITE": "https://hhs.texas.gov/services/mental-health-substance-use/state-hospitals/terrell-state-hospital", "RemoveRecord": null, "LAST_UPDATE_VAC": "02/11/2021      ", "LAST_UPDATE_TIME_VAC": "15:46:22        ", "marker-symbol": "circle-15", "marker-color": "#228B22"}}, {"type": "Feature", "geometry": {"type": "Point", "coordinates": [-95.3991674331015, 29.7081549836826]}, "properties": {"OBJECTID": 1175, "NAME": "CHI BAYLOR ST. LUKE'S MEDICAL CENTER", "TYPE": "Pharmacy", "TSA": "Q", "STREET": "6720 Bertner Ave", "CITY": "Houston", "COUNTY": "Harris", "ADDRESS": "6720 Bertner Ave", "ZIP": "77030", "LATITUDE": 29.7081549836826, "LONGITUDE": -95.3991674331015, "PFIZER_AVAILABLE": 876, "MODERNA_AVAILABLE": 0, "VACCINES_AVAILABLE": 876, "Total_Shipped": 25450, "PublicPhone": "832-844-6352", "WEBSITE": "https://www.stlukeshealth.org/locations/baylor-st-lukes-medical-center?utm_source=LocalSearch&utm_medium=Facility&utm_campaign=CHITexas&utm_term=CHIStLukesHealthBaylorStLukesMedicalCenter&y_source=1_MTUxNjI3NTYtNzE1LWxvY2F0aW9uLndlYnNpdGU%3D", "RemoveRecord": null, "LAST_UPDATE_VAC": "02/16/2021      ", "LAST_UPDATE_TIME_VAC": "16:45:34        ", "marker-symbol": "circle-15", "marker-color": "#228B22"}}, {"type": "Feature", "geometry": {"type": "Point", "coordinates": [-97.5938971981377, 33.2163056327105]}, "properties": {"OBJECTID": 1193, "NAME": "WISE HEALTH SYSTEM - DECATUR", "TYPE": "Hospital", "TSA": "E", "STREET": "609 Medical Center Dr", "CITY": "Decatur", "COUNTY": "Wise", "ADDRESS": "609 Medical Center Dr", "ZIP": "76234", "LATITUDE": 33.2163056327105, "LONGITUDE": -97.5938971981377, "PFIZER_AVAILABLE": 0, "MODERNA_AVAILABLE": 30, "VACCINES_AVAILABLE": 30, "Total_Shipped": 5350, "PublicPhone": "(972) 506-9058", "WEBSITE": "https://www.wisehealthsystem.com/", "RemoveRecord": null, "LAST_UPDATE_VAC": "02/17/2021      ", "LAST_UPDATE_TIME_VAC": "06:00:34        ", "marker-symbol": "circle-15", "marker-color": "#228B22"}}, {"type": "Feature", "geometry": {"type": "Point", "coordinates": [-95.588706, 29.925443]}, "properties": {"OBJECTID": 1198, "NAME": "KINDRED HOSPITAL - NORTHWEST", "TYPE": "Hospital", "TSA": "Q", "STREET": "11297 Fallbrook Dr", "CITY": "Houston", "COUNTY": "Harris", "ADDRESS": "11297 Fallbrook Dr, Houston, TX, 77065", "ZIP": "77065", "LATITUDE": 29.925443, "LONGITUDE": -95.588706, "PFIZER_AVAILABLE": 0, "MODERNA_AVAILABLE": 60, "VACCINES_AVAILABLE": 60, "Total_Shipped": 100, "PublicPhone": "(281) 517-1000", "WEBSITE": "https://www.kindredhealthcare.com/locations/transitional-care-hospitals/kindred-hospital-houston-northwest", "RemoveRecord": null, "LAST_UPDATE_VAC": "02/16/2021      ", "LAST_UPDATE_TIME_VAC": "09:48:16        ", "marker-symbol": "circle-15", "marker-color": "#228B22"}}, {"type": "Feature", "geometry": {"type": "Point", "coordinates": [-100.43599, 32.834]}, "properties": {"OBJECTID": 1213, "NAME": "FISHER CO. HOSPITAL DISTRICT", "TYPE": "Hospital", "TSA": "D", "STREET": "774 TX-70", "CITY": "ROTAN", "COUNTY": "Fisher", "ADDRESS": "774 TX-70", "ZIP": "79546", "LATITUDE": 32.834, "LONGITUDE": -100.43599, "PFIZER_AVAILABLE": 0, "MODERNA_AVAILABLE": 250, "VACCINES_AVAILABLE": 250, "Total_Shipped": 600, "PublicPhone": "(325) 735-2256", "WEBSITE": "http://www.fishercountyhospital.com/", "RemoveRecord": null, "LAST_UPDATE_VAC": "02/17/2021      ", "LAST_UPDATE_TIME_VAC": "07:43:46        ", "marker-symbol": "circle-15", "marker-color": "#228B22"}}, {"type": "Feature", "geometry": {"type": "Point", "coordinates": [-100.227452786745, 33.150091070286]}, "properties": {"OBJECTID": 1214, "NAME": "STONEWALL MEMORIAL HOSPITAL", "TYPE": "Hospital", "TSA": "D", "STREET": "821 N Broadway St", "CITY": "Aspermont", "COUNTY": "Stonewall", "ADDRESS": "821 N Broadway St", "ZIP": "79502", "LATITUDE": 33.150091070286, "LONGITUDE": -100.227452786745, "PFIZER_AVAILABLE": 0, "MODERNA_AVAILABLE": 130, "VACCINES_AVAILABLE": 130, "Total_Shipped": 500, "PublicPhone": "(940) 989-3551", "WEBSITE": "http://www.stonewallhospital.org/", "RemoveRecord": null, "LAST_UPDATE_VAC": "02/12/2021      ", "LAST_UPDATE_TIME_VAC": "11:49:55        ", "marker-symbol": "circle-15", "marker-color": "#228B22"}}, {"type": "Feature", "geometry": {"type": "Point", "coordinates": [-101.732656, 34.206576]}, "properties": {"OBJECTID": 1222, "NAME": "COVENANT HOSPITAL - PLAINVIEW", "TYPE": "Hospital", "TSA": "B", "STREET": "2601 Dimmitt Rd", "CITY": " Plainview", "COUNTY": "Hale", "ADDRESS": "2601 Dimmitt Rd, Plainview, TX, 79072", "ZIP": "79072", "LATITUDE": 34.206576, "LONGITUDE": -101.732656, "PFIZER_AVAILABLE": 0, "MODERNA_AVAILABLE": 30, "VACCINES_AVAILABLE": 30, "Total_Shipped": 2000, "PublicPhone": "(806) 296-5531", "WEBSITE": null, "RemoveRecord": null, "LAST_UPDATE_VAC": "02/16/2021      ", "LAST_UPDATE_TIME_VAC": "10:53:17        ", "marker-symbol": "circle-15", "marker-color": "#228B22"}}, {"type": "Feature", "geometry": {"type": "Point", "coordinates": [-101.246129368081, 33.6600174771903]}, "properties": {"OBJECTID": 1223, "NAME": "CROSBYTON CLINIC HOSPITAL", "TYPE": "Hospital", "TSA": "B", "STREET": "710 W Main St", "CITY": "Crosbyton", "COUNTY": "Crosby", "ADDRESS": "710 W Main St", "ZIP": "79322", "LATITUDE": 33.6600174771903, "LONGITUDE": -101.246129368081, "PFIZER_AVAILABLE": 0, "MODERNA_AVAILABLE": 100, "VACCINES_AVAILABLE": 100, "Total_Shipped": 2350, "PublicPhone": "(806) 675-2382", "WEBSITE": "http://crosbytonclinichospital.com/", "RemoveRecord": null, "LAST_UPDATE_VAC": "02/16/2021      ", "LAST_UPDATE_TIME_VAC": "16:34:21        ", "marker-symbol": "circle-15", "marker-color": "#228B22"}}, {"type": "Feature", "geometry": {"type": "Point", "coordinates": [-100.91749497732, 32.6884824795128]}, "properties": {"OBJECTID": 1224, "NAME": "COGDELL MEMORIAL HOSPITAL", "TYPE": "Medical Practice", "TSA": "B", "STREET": "1700 Cogdell Blvd", "CITY": "Snyder", "COUNTY": "Scurry", "ADDRESS": "1700 Cogdell Blvd", "ZIP": "79549", "LATITUDE": 32.6884824795128, "LONGITUDE": -100.91749497732, "PFIZER_AVAILABLE": 975, "MODERNA_AVAILABLE": 0, "VACCINES_AVAILABLE": 975, "Total_Shipped": 3725, "PublicPhone": "(325) 573-1300", "WEBSITE": "http://www.cogdellhospital.com/", "RemoveRecord": null, "LAST_UPDATE_VAC": "02/17/2021      ", "LAST_UPDATE_TIME_VAC": "07:35:47        ", "marker-symbol": "circle-15", "marker-color": "#228B22"}}, {"type": "Feature", "geometry": {"type": "Point", "coordinates": [-102.836367256397, 32.9686499819945]}, "properties": {"OBJECTID": 1227, "NAME": "YOAKUM COUNTY HOSPITAL", "TYPE": "Hospital", "TSA": "B", "STREET": "412 Mustang Ave", "CITY": "Denver City", "COUNTY": "Yoakum", "ADDRESS": "412 Mustang Ave", "ZIP": "79323", "LATITUDE": 32.9686499819945, "LONGITUDE": -102.836367256397, "PFIZER_AVAILABLE": 0, "MODERNA_AVAILABLE": 60, "VACCINES_AVAILABLE": 60, "Total_Shipped": 800, "PublicPhone": null, "WEBSITE": null, "RemoveRecord": null, "LAST_UPDATE_VAC": "02/17/2021      ", "LAST_UPDATE_TIME_VAC": "07:34:54        ", "marker-symbol": "circle-15", "marker-color": "#228B22"}}, {"type": "Feature", "geometry": {"type": "Point", "coordinates": [-95.6274815069641, 31.7339850411441]}, "properties": {"OBJECTID": 1229, "NAME": "PALESTINE REGIONAL MEDICAL CENTER", "TYPE": "Pharmacy", "TSA": "G", "STREET": "2900 S Loop 256", "CITY": "Palestine", "COUNTY": "Anderson", "ADDRESS": "2900 S Loop 256", "ZIP": "75801", "LATITUDE": 31.7339850411441, "LONGITUDE": -95.6274815069641, "PFIZER_AVAILABLE": 0, "MODERNA_AVAILABLE": 40, "VACCINES_AVAILABLE": 40, "Total_Shipped": 1100, "PublicPhone": "(903) 731-1000", "WEBSITE": "https://www.palestineregional.com/", "RemoveRecord": null, "LAST_UPDATE_VAC": "02/15/2021      ", "LAST_UPDATE_TIME_VAC": "08:17:41        ", "marker-symbol": "circle-15", "marker-color": "#228B22"}}, {"type": "Feature", "geometry": {"type": "Point", "coordinates": [-101.92018986769, 35.1948772627839]}, "properties": {"OBJECTID": 1231, "NAME": "BSA HEALTH SYSTEM - MAIN CAMPUS", "TYPE": "Hospital", "TSA": "A", "STREET": "1600 Wallace Blvd", "CITY": "Amarillo", "COUNTY": "Potter", "ADDRESS": "1600 Wallace Blvd", "ZIP": "79106", "LATITUDE": 35.1948772627839, "LONGITUDE": -101.92018986769, "PFIZER_AVAILABLE": 0, "MODERNA_AVAILABLE": 180, "VACCINES_AVAILABLE": 180, "Total_Shipped": 7400, "PublicPhone": "(806) 212-2000", "WEBSITE": "http://www.bsahs.org", "RemoveRecord": null, "LAST_UPDATE_VAC": "02/17/2021      ", "LAST_UPDATE_TIME_VAC": "11:25:55        ", "marker-symbol": "circle-15", "marker-color": "#228B22"}}, {"type": "Feature", "geometry": {"type": "Point", "coordinates": [-101.803867451396, 32.1382189667538]}, "properties": {"OBJECTID": 1242, "NAME": "MARTIN COUNTY HOSPITAL DISTRICT", "TYPE": "Hospital", "TSA": "J", "STREET": "600 Interstate 20 East", "CITY": "Stanton", "COUNTY": "Martin", "ADDRESS": "600 Interstate 20 East", "ZIP": "79782", "LATITUDE": 32.1382189667538, "LONGITUDE": -101.803867451396, "PFIZER_AVAILABLE": 0, "MODERNA_AVAILABLE": 100, "VACCINES_AVAILABLE": 100, "Total_Shipped": 800, "PublicPhone": "(432) 607-3200", "WEBSITE": "http://www.martincountyhospital.org/", "RemoveRecord": null, "LAST_UPDATE_VAC": "02/17/2021      ", "LAST_UPDATE_TIME_VAC": "08:25:14        ", "marker-symbol": "circle-15", "marker-color": "#228B22"}}, {"type": "Feature", "geometry": {"type": "Point", "coordinates": [-97.0771740735868, 33.0347365527577]}, "properties": {"OBJECTID": 1265, "NAME": "ICARE REHABILITATION HOSPITAL", "TYPE": "Hospital", "TSA": "E", "STREET": "3100 Peters Colony Road", "CITY": "Flower Mound", "COUNTY": "Denton", "ADDRESS": "3100 Peters Colony Road", "ZIP": "75022", "LATITUDE": 33.0347365527577, "LONGITUDE": -97.0771740735868, "PFIZER_AVAILABLE": 0, "MODERNA_AVAILABLE": 90, "VACCINES_AVAILABLE": 90, "Total_Shipped": 200, "PublicPhone": null, "WEBSITE": null, "RemoveRecord": null, "LAST_UPDATE_VAC": "02/04/2021      ", "LAST_UPDATE_TIME_VAC": "11:49:41        ", "marker-symbol": "circle-15", "marker-color": "#228B22"}}, {"type": "Feature", "geometry": {"type": "Point", "coordinates": [-98.1134831617185, 31.7037666876353]}, "properties": {"OBJECTID": 1289, "NAME": "HAMILTON GENERAL HOSPITAL", "TYPE": "Hospital", "TSA": "L", "STREET": "400 N Brown St", "CITY": "Hamilton", "COUNTY": "Hamilton", "ADDRESS": "400 N Brown St", "ZIP": "76531", "LATITUDE": 31.7037666876353, "LONGITUDE": -98.1134831617185, "PFIZER_AVAILABLE": 0, "MODERNA_AVAILABLE": 50, "VACCINES_AVAILABLE": 50, "Total_Shipped": 800, "PublicPhone": "(254) 386-1600", "WEBSITE": "http://hamiltonhospital.org/", "RemoveRecord": null, "LAST_UPDATE_VAC": "02/17/2021      ", "LAST_UPDATE_TIME_VAC": "08:58:00        ", "marker-symbol": "circle-15", "marker-color": "#228B22"}}, {"type": "Feature", "geometry": {"type": "Point", "coordinates": [-95.5470807829625, 33.6871823871914]}, "properties": {"OBJECTID": 1303, "NAME": "PARIS REGIONAL MEDICAL CENTER NORTH", "TYPE": "Hospital", "TSA": "F", "STREET": "865 Deshong Dr", "CITY": "Paris", "COUNTY": "Lamar", "ADDRESS": "865 Deshong Dr", "ZIP": "75460", "LATITUDE": 33.6871823871914, "LONGITUDE": -95.5470807829625, "PFIZER_AVAILABLE": 0, "MODERNA_AVAILABLE": 700, "VACCINES_AVAILABLE": 700, "Total_Shipped": 2500, "PublicPhone": "(903) 737-1111", "WEBSITE": "http://parisregionalmedical.com/", "RemoveRecord": null, "LAST_UPDATE_VAC": "02/15/2021      ", "LAST_UPDATE_TIME_VAC": "08:43:06        ", "marker-symbol": "circle-15", "marker-color": "#228B22"}}, {"type": "Feature", "geometry": {"type": "Point", "coordinates": [-97.7939368881852, 30.2710922971924]}, "properties": {"OBJECTID": 1326, "NAME": "ARISE AUSTIN MEDICAL CENTER", "TYPE": "Hospital", "TSA": "O", "STREET": "3003 Bee Cave Road", "CITY": "Austin", "COUNTY": "Travis", "ADDRESS": "3003 Bee Cave Road", "ZIP": "78746", "LATITUDE": 30.2710922971924, "LONGITUDE": -97.7939368881852, "PFIZER_AVAILABLE": 0, "MODERNA_AVAILABLE": 60, "VACCINES_AVAILABLE": 60, "Total_Shipped": 400, "PublicPhone": "(512) 314-3800", "WEBSITE": "http://www.arisemedicalcenter.com/", "RemoveRecord": null, "LAST_UPDATE_VAC": "02/17/2021      ", "LAST_UPDATE_TIME_VAC": "10:45:36        ", "marker-symbol": "circle-15", "marker-color": "#228B22"}}, {"type": "Feature", "geometry": {"type": "Point", "coordinates": [-96.5872473905731, 33.7106999120257]}, "properties": {"OBJECTID": 1335, "NAME": "TEXOMA MEDICAL CENTER", "TYPE": "Hospital", "TSA": "E", "STREET": "5016 S Us Highway 75", "CITY": "Denison", "COUNTY": "Grayson", "ADDRESS": "5016 S Us Highway 75", "ZIP": "75020", "LATITUDE": 33.7106999120257, "LONGITUDE": -96.5872473905731, "PFIZER_AVAILABLE": 650, "MODERNA_AVAILABLE": 0, "VACCINES_AVAILABLE": 650, "Total_Shipped": 13800, "PublicPhone": "(903) 416-4000", "WEBSITE": "https://www.texomamedicalcenter.net/?utm_source=google-business&utm_medium=organic&utm_campaign=homepage", "RemoveRecord": null, "LAST_UPDATE_VAC": "02/17/2021      ", "LAST_UPDATE_TIME_VAC": "10:27:23        ", "marker-symbol": "circle-15", "marker-color": "#228B22"}}, {"type": "Feature", "geometry": {"type": "Point", "coordinates": [-96.8362655196507, 32.8086273385252]}, "properties": {"OBJECTID": 1348, "NAME": "CHST CHILDREN'S MEDICAL CENTER - DALLAS", "TYPE": "Hospital", "TSA": "E", "STREET": "1935 Medical District Drive", "CITY": "Dallas", "COUNTY": "Dallas", "ADDRESS": "1935 Medical District Drive", "ZIP": "75235", "LATITUDE": 32.8086273385252, "LONGITUDE": -96.8362655196507, "PFIZER_AVAILABLE": 0, "MODERNA_AVAILABLE": 4570, "VACCINES_AVAILABLE": 4570, "Total_Shipped": 21400, "PublicPhone": "(214) 456-7000", "WEBSITE": "https://www.childrens.com/location-landing/locations-and-directions/childrens-health-dallas?utm_source=google&utm_medium=yext&utm_campaign=Childrens%20Health%20Locations%20%20Childrens%20Medical%20Center%20%20Dallas%20%20Brand", "RemoveRecord": null, "LAST_UPDATE_VAC": "02/17/2021      ", "LAST_UPDATE_TIME_VAC": "11:51:36        ", "marker-symbol": "circle-15", "marker-color": "#228B22"}}, {"type": "Feature", "geometry": {"type": "Point", "coordinates": [-99.3244800251777, 34.1530775000179]}, "properties": {"OBJECTID": 1350, "NAME": "North Texas State Hospital - Vernon", "TYPE": "Hospital", "TSA": "C", "STREET": "4730 College Drive", "CITY": "Vernon", "COUNTY": "Wilbarger", "ADDRESS": "4730 College Drive", "ZIP": "76384", "LATITUDE": 34.1530775000179, "LONGITUDE": -99.3244800251777, "PFIZER_AVAILABLE": 0, "MODERNA_AVAILABLE": 57, "VACCINES_AVAILABLE": 57, "Total_Shipped": 3400, "PublicPhone": "(940) 552-9901", "WEBSITE": "https://hhs.texas.gov/services/mental-health-substance-use/state-hospitals/north-texas-state-hospital", "RemoveRecord": null, "LAST_UPDATE_VAC": "02/17/2021      ", "LAST_UPDATE_TIME_VAC": "10:48:21        ", "marker-symbol": "circle-15", "marker-color": "#228B22"}}, {"type": "Feature", "geometry": {"type": "Point", "coordinates": [-95.4187024642801, 29.8751134843917]}, "properties": {"OBJECTID": 1360, "NAME": "Acres Home Health Center", "TYPE": "Community Clinic", "TSA": null, "STREET": "818 Ringold St", "CITY": "Houston", "COUNTY": "Harris", "ADDRESS": "818 Ringold St", "ZIP": "77088", "LATITUDE": 29.8751134843917, "LONGITUDE": -95.4187024642801, "PFIZER_AVAILABLE": 0, "MODERNA_AVAILABLE": 100, "VACCINES_AVAILABLE": 100, "Total_Shipped": 1000, "PublicPhone": "(281) 448-6391", "WEBSITE": "https://www.harrishealth.org/locations-hh/Pages/acres-home-health-center.aspx", "RemoveRecord": null, "LAST_UPDATE_VAC": "02/12/2021      ", "LAST_UPDATE_TIME_VAC": "08:32:57        ", "marker-symbol": "circle-15", "marker-color": "#228B22"}}, {"type": "Feature", "geometry": {"type": "Point", "coordinates": [-95.4729077292013, 29.86833361437]}, "properties": {"OBJECTID": 1397, "NAME": "UT Physicians Multispecialty Clinic - Victory", "TYPE": "Community Clinic", "TSA": "Q", "STREET": "7364 Antoine Dr", "CITY": "Houston", "COUNTY": "Harris", "ADDRESS": "7364 Antoine Dr", "ZIP": "77088", "LATITUDE": 29.86833361437, "LONGITUDE": -95.4729077292013, "PFIZER_AVAILABLE": 0, "MODERNA_AVAILABLE": 138, "VACCINES_AVAILABLE": 138, "Total_Shipped": 600, "PublicPhone": "(713) 486-7350", "WEBSITE": "https://www.utphysicians.com/clinic/ut-physicians-multispecialty-victory/", "RemoveRecord": null, "LAST_UPDATE_VAC": "02/14/2021      ", "LAST_UPDATE_TIME_VAC": "22:23:19        ", "marker-symbol": "circle-15", "marker-color": "#228B22"}}, {"type": "Feature", "geometry": {"type": "Point", "coordinates": [-94.94439, 32.73419]}, "properties": {"OBJECTID": 1437, "NAME": "Wellness Pointe - Gilmer", "TYPE": "Community Clinic", "TSA": "G", "STREET": "602 Titus St Suite 130", "CITY": "Gilmer", "COUNTY": "Upshur", "ADDRESS": "602 Titus St Suite 130", "ZIP": "75644", "LATITUDE": 32.73419, "LONGITUDE": -94.94439, "PFIZER_AVAILABLE": 0, "MODERNA_AVAILABLE": 310, "VACCINES_AVAILABLE": 310, "Total_Shipped": 400, "PublicPhone": "(903) 758-2610", "WEBSITE": null, "RemoveRecord": null, "LAST_UPDATE_VAC": "02/15/2021      ", "LAST_UPDATE_TIME_VAC": "15:10:59        ", "marker-symbol": "circle-15", "marker-color": "#228B22"}}, {"type": "Feature", "geometry": {"type": "Point", "coordinates": [-96.177434, 33.5822588]}, "properties": {"OBJECTID": 1447, "NAME": "Carevide Bonham", "TYPE": "Community Clinic", "TSA": null, "STREET": "920 N Center St", "CITY": "Bonham", "COUNTY": "Fannin", "ADDRESS": "920 North Center Street, Bonham, TX, USA", "ZIP": "75418", "LATITUDE": 33.5822588, "LONGITUDE": -96.177434, "PFIZER_AVAILABLE": 0, "MODERNA_AVAILABLE": 50, "VACCINES_AVAILABLE": 50, "Total_Shipped": 100, "PublicPhone": "903-583-6155", "WEBSITE": null, "RemoveRecord": null, "LAST_UPDATE_VAC": "02/12/2021      ", "LAST_UPDATE_TIME_VAC": "14:40:30        ", "marker-symbol": "circle-15", "marker-color": "#228B22"}}, {"type": "Feature", "geometry": {"type": "Point", "coordinates": [-95.317035, 29.810566]}, "properties": {"OBJECTID": 1506, "NAME": "Cleveland E Odom", "TYPE": "Other", "TSA": null, "STREET": "5516 Lockwood Dr", "CITY": "Houston", "COUNTY": "HARRIS", "ADDRESS": "5516 Lockwood Dr", "ZIP": "77026", "LATITUDE": 29.810566, "LONGITUDE": -95.317035, "PFIZER_AVAILABLE": 0, "MODERNA_AVAILABLE": 101, "VACCINES_AVAILABLE": 101, "Total_Shipped": 200, "PublicPhone": null, "WEBSITE": null, "RemoveRecord": null, "LAST_UPDATE_VAC": "02/12/2021      ", "LAST_UPDATE_TIME_VAC": "11:27:00        ", "marker-symbol": "circle-15", "marker-color": "#228B22"}}, {"type": "Feature", "geometry": {"type": "Point", "coordinates": [-97.1771604, 33.2345872]}, "properties": {"OBJECTID": 1548, "NAME": "Health Services of North Texas ", "TYPE": "Medical Practice", "TSA": null, "STREET": "Mesa Drive", "CITY": "Denton", "COUNTY": "Denton", "ADDRESS": "4304 Mesa Drive", "ZIP": "Texas", "LATITUDE": 33.2345872, "LONGITUDE": -97.1771604, "PFIZER_AVAILABLE": 0, "MODERNA_AVAILABLE": 50, "VACCINES_AVAILABLE": 50, "Total_Shipped": 400, "PublicPhone": null, "WEBSITE": null, "RemoveRecord": null, "LAST_UPDATE_VAC": "02/17/2021      ", "LAST_UPDATE_TIME_VAC": "11:44:22        ", "marker-symbol": "circle-15", "marker-color": "#228B22"}}, {"type": "Feature", "geometry": {"type": "Point", "coordinates": [-96.743549, 32.941253]}, "properties": {"OBJECTID": 1553, "NAME": "ALLIANCE UNITED HOSPICE CARE INC", "TYPE": "Other", "TSA": null, "STREET": "811 SOUTH CENTRAL EXPRESSWAY", "CITY": "Richardson", "COUNTY": "DALLAS", "ADDRESS": "811 SOUTH CENTRAL EXPRESSWAY", "ZIP": "75080", "LATITUDE": 32.941253, "LONGITUDE": -96.743549, "PFIZER_AVAILABLE": 0, "MODERNA_AVAILABLE": 30, "VACCINES_AVAILABLE": 30, "Total_Shipped": 200, "PublicPhone": null, "WEBSITE": null, "RemoveRecord": null, "LAST_UPDATE_VAC": "02/15/2021      ", "LAST_UPDATE_TIME_VAC": "13:41:51        ", "marker-symbol": "circle-15", "marker-color": "#228B22"}}, {"type": "Feature", "geometry": {"type": "Point", "coordinates": [-97.74491, 30.40588]}, "properties": {"OBJECTID": 1570, "NAME": "Lone Star Circle of Care at Northwest Austin \u2013 Family Medicine", "TYPE": "Other", "TSA": "O", "STREET": "11111 Research Blvd Ste 320", "CITY": "Austin", "COUNTY": "Travis", "ADDRESS": "11111 Research Blvd Ste 320", "ZIP": "78759", "LATITUDE": 30.40588, "LONGITUDE": -97.74491, "PFIZER_AVAILABLE": 0, "MODERNA_AVAILABLE": 30, "VACCINES_AVAILABLE": 30, "Total_Shipped": 200, "PublicPhone": "(877) 800-5722", "WEBSITE": "www.lonestarcares.org", "RemoveRecord": null, "LAST_UPDATE_VAC": "02/17/2021      ", "LAST_UPDATE_TIME_VAC": "08:04:17        ", "marker-symbol": "circle-15", "marker-color": "#228B22"}}, {"type": "Feature", "geometry": {"type": "Point", "coordinates": [-94.973087, 33.1758774]}, "properties": {"OBJECTID": 1572, "NAME": "Wellness Pointe - Mount Pleasant", "TYPE": "Medical Practice", "TSA": "F", "STREET": "2015 Mulberry Ave Ste 250", "CITY": "Mount Pleasant", "COUNTY": "Titus", "ADDRESS": "2015 Mulberry Ave Ste 250", "ZIP": "75455", "LATITUDE": 33.1758774, "LONGITUDE": -94.973087, "PFIZER_AVAILABLE": 0, "MODERNA_AVAILABLE": 20, "VACCINES_AVAILABLE": 20, "Total_Shipped": 200, "PublicPhone": null, "WEBSITE": null, "RemoveRecord": null, "LAST_UPDATE_VAC": "02/12/2021      ", "LAST_UPDATE_TIME_VAC": "17:26:19        ", "marker-symbol": "circle-15", "marker-color": "#228B22"}}, {"type": "Feature", "geometry": {"type": "Point", "coordinates": [-93.7473, 30.1058]}, "properties": {"OBJECTID": 1580, "NAME": "Kroger Pharmacy 950", "TYPE": "Other", "TSA": "R", "STREET": "1600 N 16th St", "CITY": "Orange", "COUNTY": "Orange", "ADDRESS": "1600 N 16th St Orange, TX 77630", "ZIP": "77630", "LATITUDE": 30.1058, "LONGITUDE": -93.7473, "PFIZER_AVAILABLE": 0, "MODERNA_AVAILABLE": 20, "VACCINES_AVAILABLE": 20, "Total_Shipped": 100, "PublicPhone": "(409) 883-8521", "WEBSITE": null, "RemoveRecord": null, "LAST_UPDATE_VAC": "01/26/2021      ", "LAST_UPDATE_TIME_VAC": "08:45:59        ", "marker-symbol": "circle-15", "marker-color": "#228B22"}}, {"type": "Feature", "geometry": {"type": "Point", "coordinates": [-101.3900331, 33.202634]}, "properties": {"OBJECTID": 1604, "NAME": "Garza County Health Clinic", "TYPE": "Medical Practice", "TSA": "B", "STREET": "1104 N. Avenue S", "CITY": "Post", "COUNTY": "Garza", "ADDRESS": "1104 N. Avenue S", "ZIP": "79356", "LATITUDE": 33.202634, "LONGITUDE": -101.3900331, "PFIZER_AVAILABLE": 0, "MODERNA_AVAILABLE": 150, "VACCINES_AVAILABLE": 150, "Total_Shipped": 400, "PublicPhone": "806-495-2853", "WEBSITE": null, "RemoveRecord": null, "LAST_UPDATE_VAC": "02/17/2021      ", "LAST_UPDATE_TIME_VAC": "08:58:01        ", "marker-symbol": "circle-15", "marker-color": "#228B22"}}, {"type": "Feature", "geometry": {"type": "Point", "coordinates": [-96.9443967691068, 32.8332499103799]}, "properties": {"OBJECTID": 1619, "NAME": "Irving Health Center Parkland Health And Hospital", "TYPE": "Other", "TSA": "E", "STREET": "1800 N Britain Rd", "CITY": "Irving", "COUNTY": "Dallas", "ADDRESS": "1800 N Britain Rd", "ZIP": "75061", "LATITUDE": 32.8332499103799, "LONGITUDE": -96.9443967691068, "PFIZER_AVAILABLE": 0, "MODERNA_AVAILABLE": 100, "VACCINES_AVAILABLE": 100, "Total_Shipped": 100, "PublicPhone": "214-266-3031", "WEBSITE": "https://www.parklandhospital.com/locations/irving-health-center-7", "RemoveRecord": null, "LAST_UPDATE_VAC": "02/17/2021      ", "LAST_UPDATE_TIME_VAC": "00:41:21        ", "marker-symbol": "circle-15", "marker-color": "#228B22"}}, {"type": "Feature", "geometry": {"type": "Point", "coordinates": [-96.750436, 32.770501]}, "properties": {"OBJECTID": 1620, "NAME": "Hatcher Station Health Center", "TYPE": "Other", "TSA": "E", "STREET": "4600 Scyene Rd", "CITY": "Dallas", "COUNTY": "Dallas", "ADDRESS": "4600 Scyene Rd., Dallas, TX 75210", "ZIP": "75210", "LATITUDE": 32.770501, "LONGITUDE": -96.750436, "PFIZER_AVAILABLE": 0, "MODERNA_AVAILABLE": 150, "VACCINES_AVAILABLE": 150, "Total_Shipped": 200, "PublicPhone": "(214) 266-2017", "WEBSITE": null, "RemoveRecord": null, "LAST_UPDATE_VAC": "02/17/2021      ", "LAST_UPDATE_TIME_VAC": "04:21:19        ", "marker-symbol": "circle-15", "marker-color": "#228B22"}}, {"type": "Feature", "geometry": {"type": "Point", "coordinates": [-95.2383919356225, 33.1485250331121]}, "properties": {"OBJECTID": 1720, "NAME": "Franklin County Rural Health Clinic", "TYPE": "Community Clinic", "TSA": null, "STREET": "506 Texas Highway 37", "CITY": "Mount Vernon", "COUNTY": "Franklin", "ADDRESS": "506 Texas Highway 37", "ZIP": "75457", "LATITUDE": 33.1485250331121, "LONGITUDE": -95.2383919356225, "PFIZER_AVAILABLE": 0, "MODERNA_AVAILABLE": 10, "VACCINES_AVAILABLE": 10, "Total_Shipped": 500, "PublicPhone": "(903) 537-8222", "WEBSITE": "http://www.fcrhc.com/", "RemoveRecord": null, "LAST_UPDATE_VAC": "02/17/2021      ", "LAST_UPDATE_TIME_VAC": "10:28:18        ", "marker-symbol": "circle-15", "marker-color": "#228B22"}}, {"type": "Feature", "geometry": {"type": "Point", "coordinates": [-100.454, 31.4921]}, "properties": {"OBJECTID": 1800, "NAME": "La Esperanza Clinic- 31st Street", "TYPE": "Community Clinic", "TSA": null, "STREET": "35 e 31st st", "CITY": "San Angelo", "COUNTY": "Tom Green", "ADDRESS": "35 E 31st St", "ZIP": "76903", "LATITUDE": 31.4921, "LONGITUDE": -100.454, "PFIZER_AVAILABLE": 0, "MODERNA_AVAILABLE": 300, "VACCINES_AVAILABLE": 300, "Total_Shipped": 400, "PublicPhone": null, "WEBSITE": null, "RemoveRecord": null, "LAST_UPDATE_VAC": "02/12/2021      ", "LAST_UPDATE_TIME_VAC": "07:43:40        ", "marker-symbol": "circle-15", "marker-color": "#228B22"}}, {"type": "Feature", "geometry": {"type": "Point", "coordinates": [-95.6316490730417, 31.7357276807243]}, "properties": {"OBJECTID": 1817, "NAME": "Christus Trinity Clinic Magnolia Medical Plaza", "TYPE": "Community Clinic", "TSA": null, "STREET": "3201 South Loop 256", "CITY": "Palestine", "COUNTY": "Anderson", "ADDRESS": "3201 South Loop 256", "ZIP": "75801", "LATITUDE": 31.7357276807243, "LONGITUDE": -95.6316490730417, "PFIZER_AVAILABLE": 0, "MODERNA_AVAILABLE": 50, "VACCINES_AVAILABLE": 50, "Total_Shipped": 3800, "PublicPhone": "(903) 723-0330", "WEBSITE": "https://www.christushealth.org/trinity/clinic/locations-directions/magnolia-medical-plaza-palestine?utm_source=organic&utm_medium=GMB&utm_campaign=website&y_source=1_MTE3ODEzMjQtNzE1LWxvY2F0aW9uLmdvb2dsZV93ZWJzaXRlX292ZXJyaWRl", "RemoveRecord": null, "LAST_UPDATE_VAC": "02/14/2021      ", "LAST_UPDATE_TIME_VAC": "15:03:00        ", "marker-symbol": "circle-15", "marker-color": "#228B22"}}, {"type": "Feature", "geometry": {"type": "Point", "coordinates": [-95.4843280722779, 32.6785643411235]}, "properties": {"OBJECTID": 1826, "NAME": "Trinity Clinic Mineola", "TYPE": "Community Clinic", "TSA": null, "STREET": "1302 N Pacific St", "CITY": "Mineola", "COUNTY": "Wood", "ADDRESS": "1302 N Pacific St", "ZIP": "75773", "LATITUDE": 32.6785643411235, "LONGITUDE": -95.4843280722779, "PFIZER_AVAILABLE": 0, "MODERNA_AVAILABLE": 110, "VACCINES_AVAILABLE": 110, "Total_Shipped": 500, "PublicPhone": "(903) 569-5383", "WEBSITE": "https://www.christushealth.org/trinity/clinic/locations-directions/mineola?utm_source=organic&utm_medium=GMB&utm_campaign=website&y_source=1_MTE3ODEyMDUtNzE1LWxvY2F0aW9uLmdvb2dsZV93ZWJzaXRlX292ZXJyaWRl", "RemoveRecord": null, "LAST_UPDATE_VAC": "02/12/2021      ", "LAST_UPDATE_TIME_VAC": "16:50:28        ", "marker-symbol": "circle-15", "marker-color": "#228B22"}}, {"type": "Feature", "geometry": {"type": "Point", "coordinates": [-95.2988567, 32.3439848]}, "properties": {"OBJECTID": 1842, "NAME": "Tyler Family Circle of Care", "TYPE": "Community Clinic", "TSA": null, "STREET": "214 E Houston St", "CITY": "Tyler", "COUNTY": "Smith", "ADDRESS": "214 East Houston Street, Tyler, TX, USA", "ZIP": "75702", "LATITUDE": 32.3439848, "LONGITUDE": -95.2988567, "PFIZER_AVAILABLE": 0, "MODERNA_AVAILABLE": 100, "VACCINES_AVAILABLE": 100, "Total_Shipped": 200, "PublicPhone": "903-593-1892", "WEBSITE": null, "RemoveRecord": null, "LAST_UPDATE_VAC": "02/17/2021      ", "LAST_UPDATE_TIME_VAC": "12:12:26        ", "marker-symbol": "circle-15", "marker-color": "#228B22"}}, {"type": "Feature", "geometry": {"type": "Point", "coordinates": [-94.7304037933845, 32.5028973782914]}, "properties": {"OBJECTID": 1849, "NAME": "Longview Wellness Center", "TYPE": "Community Clinic", "TSA": null, "STREET": "705 E Marshall Ave", "CITY": "Longview", "COUNTY": "Gregg", "ADDRESS": "705 E Marshall Ave", "ZIP": "75601", "LATITUDE": 32.5028973782914, "LONGITUDE": -94.7304037933845, "PFIZER_AVAILABLE": 0, "MODERNA_AVAILABLE": 100, "VACCINES_AVAILABLE": 100, "Total_Shipped": 700, "PublicPhone": "(903) 758-2610", "WEBSITE": "http://www.wellnesspointe.org/", "RemoveRecord": null, "LAST_UPDATE_VAC": "02/15/2021      ", "LAST_UPDATE_TIME_VAC": "15:12:49        ", "marker-symbol": "circle-15", "marker-color": "#228B22"}}, {"type": "Feature", "geometry": {"type": "Point", "coordinates": [-100.536487717731, 36.4601770699411]}, "properties": {"OBJECTID": 1859, "NAME": "Teare Memorial Clinic", "TYPE": "Medical Practice", "TSA": null, "STREET": "146 N Pioneer", "CITY": "Booker", "COUNTY": "Lipscomb", "ADDRESS": "146 N Pioneer", "ZIP": "79005", "LATITUDE": 36.4601770699411, "LONGITUDE": -100.536487717731, "PFIZER_AVAILABLE": 0, "MODERNA_AVAILABLE": 20, "VACCINES_AVAILABLE": 20, "Total_Shipped": 200, "PublicPhone": "(806) 658-4531", "WEBSITE": null, "RemoveRecord": null, "LAST_UPDATE_VAC": "02/17/2021      ", "LAST_UPDATE_TIME_VAC": "09:38:43        ", "marker-symbol": "circle-15", "marker-color": "#228B22"}}, {"type": "Feature", "geometry": {"type": "Point", "coordinates": [-100.919112433176, 32.7067800065068]}, "properties": {"OBJECTID": 1868, "NAME": "United Pharmacy 549", "TYPE": "Pharmacy", "TSA": null, "STREET": "3500 College Ave", "CITY": "Snyder", "COUNTY": "Scurry", "ADDRESS": "3500 College Ave", "ZIP": "79549", "LATITUDE": 32.7067800065068, "LONGITUDE": -100.919112433176, "PFIZER_AVAILABLE": 0, "MODERNA_AVAILABLE": 20, "VACCINES_AVAILABLE": 20, "Total_Shipped": 200, "PublicPhone": "(325) 574-1683", "WEBSITE": "https://local.pharmacy.unitedsupermarkets.com/tx/snyder/3500-college-ave.html", "RemoveRecord": null, "LAST_UPDATE_VAC": "02/16/2021      ", "LAST_UPDATE_TIME_VAC": "09:29:40        ", "marker-symbol": "circle-15", "marker-color": "#228B22"}}, {"type": "Feature", "geometry": {"type": "Point", "coordinates": [-97.9673357112182, 29.8594699613097]}, "properties": {"OBJECTID": 1899, "NAME": "San Marcos Family Medicine", "TYPE": "Medical Practice", "TSA": null, "STREET": "2406 Hunter Rd", "CITY": "San Marcos", "COUNTY": "Hays", "ADDRESS": "2406 Hunter Rd", "ZIP": "78666", "LATITUDE": 29.8594699613097, "LONGITUDE": -97.9673357112182, "PFIZER_AVAILABLE": 0, "MODERNA_AVAILABLE": 17, "VACCINES_AVAILABLE": 17, "Total_Shipped": 1000, "PublicPhone": "(512) 396-7686", "WEBSITE": "http://www.smfm.net/", "RemoveRecord": null, "LAST_UPDATE_VAC": "02/13/2021      ", "LAST_UPDATE_TIME_VAC": "07:58:35        ", "marker-symbol": "circle-15", "marker-color": "#228B22"}}, {"type": "Feature", "geometry": {"type": "Point", "coordinates": [-99.2883039, 32.7316832]}, "properties": {"OBJECTID": 1904, "NAME": "ResourceCare Albany", "TYPE": "Medical Practice", "TSA": null, "STREET": "725 Pate St", "CITY": "Albany", "COUNTY": "Shackelford", "ADDRESS": "725 Pate Street, Albany, TX, USA", "ZIP": "76430", "LATITUDE": 32.7316832, "LONGITUDE": -99.2883039, "PFIZER_AVAILABLE": 0, "MODERNA_AVAILABLE": 100, "VACCINES_AVAILABLE": 100, "Total_Shipped": 300, "PublicPhone": "(254) 559-7215", "WEBSITE": null, "RemoveRecord": null, "LAST_UPDATE_VAC": "02/12/2021      ", "LAST_UPDATE_TIME_VAC": "10:36:34        ", "marker-symbol": "circle-15", "marker-color": "#228B22"}}, {"type": "Feature", "geometry": {"type": "Point", "coordinates": [-106.4876396, 31.7627729]}, "properties": {"OBJECTID": 1931, "NAME": "Dshs Phr 9 /10 Hq - El Paso (Re)", "TYPE": "Local Health Department", "TSA": null, "STREET": "401 E Franklin Ave", "CITY": "El Paso", "COUNTY": "El Paso", "ADDRESS": "401 E Franklin Ave, El Paso, TX, USA", "ZIP": "79901", "LATITUDE": 31.7627729, "LONGITUDE": -106.4876396, "PFIZER_AVAILABLE": 0, "MODERNA_AVAILABLE": 30, "VACCINES_AVAILABLE": 30, "Total_Shipped": 700, "PublicPhone": null, "WEBSITE": null, "RemoveRecord": null, "LAST_UPDATE_VAC": "02/09/2021      ", "LAST_UPDATE_TIME_VAC": "16:12:53        ", "marker-symbol": "circle-15", "marker-color": "#228B22"}}, {"type": "Feature", "geometry": {"type": "Point", "coordinates": [-106.267592648366, 31.7833650539552]}, "properties": {"OBJECTID": 1948, "NAME": "Ep Family Doctor", "TYPE": "Other", "TSA": null, "STREET": "2270 Joe Battle Suite Mn", "CITY": "El Paso", "COUNTY": "El Paso", "ADDRESS": "2270 Joe Battle Suite Mn", "ZIP": "79938", "LATITUDE": 31.7833650539552, "LONGITUDE": -106.267592648366, "PFIZER_AVAILABLE": 0, "MODERNA_AVAILABLE": 25, "VACCINES_AVAILABLE": 25, "Total_Shipped": 1000, "PublicPhone": "(915) 855-7000", "WEBSITE": null, "RemoveRecord": null, "LAST_UPDATE_VAC": "02/17/2021      ", "LAST_UPDATE_TIME_VAC": "09:15:45        ", "marker-symbol": "circle-15", "marker-color": "#228B22"}}, {"type": "Feature", "geometry": {"type": "Point", "coordinates": [-95.33868, 29.71953]}, "properties": {"OBJECTID": 1949, "NAME": "Lone Star Circle Of Care  At The University Of Houston", "TYPE": "Other", "TSA": null, "STREET": null, "CITY": "Houston", "COUNTY": "Harris", "ADDRESS": "4849 Calhoun Road", "ZIP": "77204", "LATITUDE": 29.71953, "LONGITUDE": -95.33868, "PFIZER_AVAILABLE": 0, "MODERNA_AVAILABLE": 50, "VACCINES_AVAILABLE": 50, "Total_Shipped": 200, "PublicPhone": "877-800-5722", "WEBSITE": "www.lonestarcares.org", "RemoveRecord": null, "LAST_UPDATE_VAC": "02/11/2021      ", "LAST_UPDATE_TIME_VAC": "16:59:59        ", "marker-symbol": "circle-15", "marker-color": "#228B22"}}, {"type": "Feature", "geometry": {"type": "Point", "coordinates": [-95.0189547349398, 29.4016752931727]}, "properties": {"OBJECTID": 1994, "NAME": "Coastal Health & Wellness", "TYPE": "Other", "TSA": null, "STREET": "9850 Emmett F Lowry Expressway", "CITY": "Texas City", "COUNTY": "Galveston", "ADDRESS": "9850 Emmett F Lowry Expressway", "ZIP": "77591", "LATITUDE": 29.4016752931727, "LONGITUDE": -95.0189547349398, "PFIZER_AVAILABLE": 0, "MODERNA_AVAILABLE": 40, "VACCINES_AVAILABLE": 40, "Total_Shipped": 300, "PublicPhone": null, "WEBSITE": null, "RemoveRecord": null, "LAST_UPDATE_VAC": "02/12/2021      ", "LAST_UPDATE_TIME_VAC": "16:24:13        ", "marker-symbol": "circle-15", "marker-color": "#228B22"}}, {"type": "Feature", "geometry": {"type": "Point", "coordinates": [-96.7733386330182, 32.9096896634018]}, "properties": {"OBJECTID": 1995, "NAME": "Ahf Pharmacy 2400", "TYPE": "Pharmacy", "TSA": null, "STREET": "7777 Forest Lane", "CITY": "Dallas", "COUNTY": "Dallas", "ADDRESS": "7777 Forest Lane", "ZIP": "75230", "LATITUDE": 32.9096896634018, "LONGITUDE": -96.7733386330182, "PFIZER_AVAILABLE": 0, "MODERNA_AVAILABLE": 100, "VACCINES_AVAILABLE": 100, "Total_Shipped": 200, "PublicPhone": "(972)383-1070", "WEBSITE": "https://ahfbatonrouge.com/", "RemoveRecord": null, "LAST_UPDATE_VAC": "02/12/2021      ", "LAST_UPDATE_TIME_VAC": "07:50:55        ", "marker-symbol": "circle-15", "marker-color": "#228B22"}}, {"type": "Feature", "geometry": {"type": "Point", "coordinates": [-96.1096975096084, 33.1049429965694]}, "properties": {"OBJECTID": 2007, "NAME": "Brookshires Pharmacy 74", "TYPE": "Pharmacy", "TSA": null, "STREET": "6410 Wesley St", "CITY": "Greenville", "COUNTY": "Hunt", "ADDRESS": "6410 Wesley St", "ZIP": "75402", "LATITUDE": 33.1049429965694, "LONGITUDE": -96.1096975096084, "PFIZER_AVAILABLE": 0, "MODERNA_AVAILABLE": 85, "VACCINES_AVAILABLE": 85, "Total_Shipped": 300, "PublicPhone": "(903) 455-1076", "WEBSITE": "https://www.brookshires.com/covid-19-information", "RemoveRecord": null, "LAST_UPDATE_VAC": "02/16/2021      ", "LAST_UPDATE_TIME_VAC": "14:25:51        ", "marker-symbol": "circle-15", "marker-color": "#228B22"}}, {"type": "Feature", "geometry": {"type": "Point", "coordinates": [-95.4010922533465, 29.7230652997843]}, "properties": {"OBJECTID": 2060, "NAME": "Medical Clinic Of Houston Houston 170", "TYPE": "Other", "TSA": null, "STREET": "1701 Sunset Blvd", "CITY": "Houston", "COUNTY": "Harris", "ADDRESS": "1701 Sunset Blvd", "ZIP": "77005", "LATITUDE": 29.7230652997843, "LONGITUDE": -95.4010922533465, "PFIZER_AVAILABLE": 0, "MODERNA_AVAILABLE": 50, "VACCINES_AVAILABLE": 50, "Total_Shipped": 2000, "PublicPhone": "(713) 526-5511", "WEBSITE": "https://mchllp.com/", "RemoveRecord": null, "LAST_UPDATE_VAC": "02/12/2021      ", "LAST_UPDATE_TIME_VAC": "16:53:46        ", "marker-symbol": "circle-15", "marker-color": "#228B22"}}, {"type": "Feature", "geometry": {"type": "Point", "coordinates": [-98.5815821115773, 29.5147391732387]}, "properties": {"OBJECTID": 2099, "NAME": "University Of Tx Medicine", "TYPE": "Other", "TSA": null, "STREET": "8300 Floyd Curl Dr", "CITY": "San Antonio", "COUNTY": "Bexar", "ADDRESS": "8300 Floyd Curl Dr", "ZIP": "78229", "LATITUDE": 29.5147391732387, "LONGITUDE": -98.5815821115773, "PFIZER_AVAILABLE": 330, "MODERNA_AVAILABLE": 0, "VACCINES_AVAILABLE": 330, "Total_Shipped": 4100, "PublicPhone": "(512) 495-5555", "WEBSITE": "https://dellmed.utexas.edu/", "RemoveRecord": null, "LAST_UPDATE_VAC": "02/17/2021      ", "LAST_UPDATE_TIME_VAC": "06:58:09        ", "marker-symbol": "circle-15", "marker-color": "#228B22"}}, {"type": "Feature", "geometry": {"type": "Point", "coordinates": [-95.301021, 29.7345052]}, "properties": {"OBJECTID": 2137, "NAME": "El Centro De Corazon Magnolia Clinic", "TYPE": "Community Clinic", "TSA": null, "STREET": "Capitol St", "CITY": "Houston", "COUNTY": "Harris ", "ADDRESS": "7037 Capitol St suite 100", "ZIP": "77011", "LATITUDE": 29.7345052, "LONGITUDE": -95.301021, "PFIZER_AVAILABLE": 790, "MODERNA_AVAILABLE": 0, "VACCINES_AVAILABLE": 790, "Total_Shipped": 100, "PublicPhone": null, "WEBSITE": null, "RemoveRecord": null, "LAST_UPDATE_VAC": "02/12/2021      ", "LAST_UPDATE_TIME_VAC": "20:42:59        ", "marker-symbol": "circle-15", "marker-color": "#228B22"}}, {"type": "Feature", "geometry": {"type": "Point", "coordinates": [-94.8533731023098, 29.8405650816115]}, "properties": {"OBJECTID": 2143, "NAME": "West Chambers Medical Clinic", "TYPE": "Community Clinic", "TSA": null, "STREET": "9825 Eagle Dr", "CITY": "Baytown", "COUNTY": "Chambers", "ADDRESS": "9825 Eagle Dr", "ZIP": "77523", "LATITUDE": 29.8405650816115, "LONGITUDE": -94.8533731023098, "PFIZER_AVAILABLE": 0, "MODERNA_AVAILABLE": 20, "VACCINES_AVAILABLE": 20, "Total_Shipped": 200, "PublicPhone": "(281) 576-0670", "WEBSITE": "http://www.chambershealth.org/", "RemoveRecord": null, "LAST_UPDATE_VAC": "02/12/2021      ", "LAST_UPDATE_TIME_VAC": "06:41:36        ", "marker-symbol": "circle-15", "marker-color": "#228B22"}}, {"type": "Feature", "geometry": {"type": "Point", "coordinates": [-97.7381458122927, 30.4315675424558]}, "properties": {"OBJECTID": 2184, "NAME": "Austin Radiological Association", "TYPE": "Medical Practice", "TSA": null, "STREET": "12554 Riata Vista Circle", "CITY": "Austin", "COUNTY": "Travis", "ADDRESS": "12554 Riata Vista Circle", "ZIP": "78727", "LATITUDE": 30.4315675424558, "LONGITUDE": -97.7381458122927, "PFIZER_AVAILABLE": 0, "MODERNA_AVAILABLE": 35, "VACCINES_AVAILABLE": 35, "Total_Shipped": 1000, "PublicPhone": "(512) 453-6100", "WEBSITE": "http://www.ausrad.com/", "RemoveRecord": null, "LAST_UPDATE_VAC": "02/12/2021      ", "LAST_UPDATE_TIME_VAC": "12:37:21        ", "marker-symbol": "circle-15", "marker-color": "#228B22"}}, {"type": "Feature", "geometry": {"type": "Point", "coordinates": [-96.5201868373648, 33.0117911158683]}, "properties": {"OBJECTID": 2257, "NAME": "WYLIE FIRE STATION 3", "TYPE": "Other", "TSA": null, "STREET": "WA ALLEN BLVD", "CITY": "WYLIE", "COUNTY": "COLLIN", "ADDRESS": "210 N. WA ALLEN BLVD", "ZIP": "75098", "LATITUDE": 33.0117911158683, "LONGITUDE": -96.5201868373648, "PFIZER_AVAILABLE": 0, "MODERNA_AVAILABLE": 1000, "VACCINES_AVAILABLE": 1000, "Total_Shipped": 600, "PublicPhone": "(972) 442-8110", "WEBSITE": null, "RemoveRecord": null, "LAST_UPDATE_VAC": "02/14/2021      ", "LAST_UPDATE_TIME_VAC": "09:33:41        ", "marker-symbol": "circle-15", "marker-color": "#228B22"}}, {"type": "Feature", "geometry": {"type": "Point", "coordinates": [-95.0732998040606, 31.6520198330403]}, "properties": {"OBJECTID": 2266, "NAME": "Brookshire Brothers Pharmacy 7", "TYPE": "Pharmacy", "TSA": null, "STREET": "210 N Marcus", "CITY": "Alto", "COUNTY": "Cherokee", "ADDRESS": "210 N Marcus", "ZIP": "75925", "LATITUDE": 31.6520198330403, "LONGITUDE": -95.0732998040606, "PFIZER_AVAILABLE": 0, "MODERNA_AVAILABLE": 80, "VACCINES_AVAILABLE": 80, "Total_Shipped": 300, "PublicPhone": "936-858-4311", "WEBSITE": null, "RemoveRecord": null, "LAST_UPDATE_VAC": "02/12/2021      ", "LAST_UPDATE_TIME_VAC": "16:19:07        ", "marker-symbol": "circle-15", "marker-color": "#228B22"}}, {"type": "Feature", "geometry": {"type": "Point", "coordinates": [-97.1203291016905, 32.7064119684497]}, "properties": {"OBJECTID": 2280, "NAME": "Jps Se Tarrant County Med Home", "TYPE": "Community Clinic", "TSA": null, "STREET": "1050 W Arkansas Ln Ste 150", "CITY": "Arlington", "COUNTY": "Tarrant", "ADDRESS": "1050 W Arkansas Ln Ste 150", "ZIP": "76013", "LATITUDE": 32.7064119684497, "LONGITUDE": -97.1203291016905, "PFIZER_AVAILABLE": 0, "MODERNA_AVAILABLE": 300, "VACCINES_AVAILABLE": 300, "Total_Shipped": 4800, "PublicPhone": "(817) 702-1100", "WEBSITE": "http://www.jpshealthnet.org/location/medical-home-southeast-tarrant", "RemoveRecord": null, "LAST_UPDATE_VAC": "02/14/2021      ", "LAST_UPDATE_TIME_VAC": "17:36:06        ", "marker-symbol": "circle-15", "marker-color": "#228B22"}}, {"type": "Feature", "geometry": {"type": "Point", "coordinates": [-95.6444406127171, 29.7427066696438]}, "properties": {"OBJECTID": 2293, "NAME": "West Oaks Urgent Care", "TYPE": "Medical Practice", "TSA": null, "STREET": "2150 Highway 6 S Ste 100", "CITY": "Houston", "COUNTY": "Harris", "ADDRESS": "2150 Highway 6 S Ste 100", "ZIP": "77077", "LATITUDE": 29.7427066696438, "LONGITUDE": -95.6444406127171, "PFIZER_AVAILABLE": 0, "MODERNA_AVAILABLE": 390, "VACCINES_AVAILABLE": 390, "Total_Shipped": 2000, "PublicPhone": "(281) 496-4948", "WEBSITE": "http://www.westoaksurgentcare.net/", "RemoveRecord": null, "LAST_UPDATE_VAC": "02/14/2021      ", "LAST_UPDATE_TIME_VAC": "16:19:58        ", "marker-symbol": "circle-15", "marker-color": "#228B22"}}, {"type": "Feature", "geometry": {"type": "Point", "coordinates": [-95.5492042917613, 29.902984346792]}, "properties": {"OBJECTID": 2295, "NAME": "West Oaks Urgent Care Ii", "TYPE": "Medical Practice", "TSA": null, "STREET": "9138 West Rd", "CITY": "Houston", "COUNTY": "Harris", "ADDRESS": "9138 West Rd", "ZIP": "77064", "LATITUDE": 29.902984346792, "LONGITUDE": -95.5492042917613, "PFIZER_AVAILABLE": 0, "MODERNA_AVAILABLE": 460, "VACCINES_AVAILABLE": 460, "Total_Shipped": 2000, "PublicPhone": "(832) 230-8772", "WEBSITE": "http://www.westoaksurgentcare.net/", "RemoveRecord": null, "LAST_UPDATE_VAC": "02/14/2021      ", "LAST_UPDATE_TIME_VAC": "16:21:14        ", "marker-symbol": "circle-15", "marker-color": "#228B22"}}, {"type": "Feature", "geometry": {"type": "Point", "coordinates": [-95.4027741660378, 29.7091518434274]}, "properties": {"OBJECTID": 2298, "NAME": "Baylor College Of Medicine", "TYPE": "Other", "TSA": null, "STREET": "6620 Main Street", "CITY": "Houston", "COUNTY": "Harris", "ADDRESS": "6620 Main Street", "ZIP": "77030", "LATITUDE": 29.7091518434274, "LONGITUDE": -95.4027741660378, "PFIZER_AVAILABLE": 1630, "MODERNA_AVAILABLE": 0, "VACCINES_AVAILABLE": 1630, "Total_Shipped": 11900, "PublicPhone": "(713) 798-4951", "WEBSITE": "https://www.bcm.edu/", "RemoveRecord": null, "LAST_UPDATE_VAC": "02/14/2021      ", "LAST_UPDATE_TIME_VAC": "08:01:30        ", "marker-symbol": "circle-15", "marker-color": "#228B22"}}, {"type": "Feature", "geometry": {"type": "Point", "coordinates": [-95.508894676114, 29.6874407863652]}, "properties": {"OBJECTID": 2299, "NAME": "Clinica Hispana Ii Pa", "TYPE": "Medical Practice", "TSA": null, "STREET": "8410 Fondren Rd", "CITY": "Houston", "COUNTY": "Harris", "ADDRESS": "8410 Fondren Rd", "ZIP": "77074", "LATITUDE": 29.6874407863652, "LONGITUDE": -95.508894676114, "PFIZER_AVAILABLE": 0, "MODERNA_AVAILABLE": 690, "VACCINES_AVAILABLE": 690, "Total_Shipped": 1000, "PublicPhone": "(713) 484-7455", "WEBSITE": null, "RemoveRecord": null, "LAST_UPDATE_VAC": "02/12/2021      ", "LAST_UPDATE_TIME_VAC": "11:11:09        ", "marker-symbol": "circle-15", "marker-color": "#228B22"}}, {"type": "Feature", "geometry": {"type": "Point", "coordinates": [-98.1736485605787, 29.1597535652613]}, "properties": {"OBJECTID": 2320, "NAME": "Connally Memorial Family Practice Main", "TYPE": "Community Clinic", "TSA": null, "STREET": "497 10th Street Suite 101", "CITY": "Floresville", "COUNTY": "Wilson", "ADDRESS": "497 10th Street Suite 101", "ZIP": "78114", "LATITUDE": 29.1597535652613, "LONGITUDE": -98.1736485605787, "PFIZER_AVAILABLE": 0, "MODERNA_AVAILABLE": 10, "VACCINES_AVAILABLE": 10, "Total_Shipped": 600, "PublicPhone": "(830) 393-1400", "WEBSITE": "http://www.connallymmc.org/", "RemoveRecord": null, "LAST_UPDATE_VAC": "02/17/2021      ", "LAST_UPDATE_TIME_VAC": "11:47:12        ", "marker-symbol": "circle-15", "marker-color": "#228B22"}}, {"type": "Feature", "geometry": {"type": "Point", "coordinates": [-98.4356099956146, 26.2421445409738]}, "properties": {"OBJECTID": 2357, "NAME": "Eduardo Guzman Md", "TYPE": "Medical Practice", "TSA": null, "STREET": "2308 Hwy 83 Ste F", "CITY": "Penitas", "COUNTY": "Hidalgo", "ADDRESS": "2308 Hwy 83 Ste F", "ZIP": "78576", "LATITUDE": 26.2421445409738, "LONGITUDE": -98.4356099956146, "PFIZER_AVAILABLE": 0, "MODERNA_AVAILABLE": 10, "VACCINES_AVAILABLE": 10, "Total_Shipped": 200, "PublicPhone": "(956) 519-9100", "WEBSITE": "http://eduardo-guzman.poi.place/", "RemoveRecord": null, "LAST_UPDATE_VAC": "02/16/2021      ", "LAST_UPDATE_TIME_VAC": "09:31:02        ", "marker-symbol": "circle-15", "marker-color": "#228B22"}}]}