{
    "type": "FeatureCollection",
    "features": [
        {
            "type": "Feature",
            "geometry": {
                "type": "Point",
                "coordinates": [
                    -97.0908801616591,
                    33.2039740510303
                ]
            },
            "properties": {
                "OBJECTID": 1,
                "NAME": "Denton County Public Health",
                "TYPE": "Vaccine Hub",
                "TSA": "E",
                "STREET": "535 S Loop 288 #1003, Denton, TX 76205",
                "CITY": "Denton",
                "COUNTY": "Denton",
                "ADDRESS": "535 S Loop 288",
                "ZIP": "76205",
                "LATITUDE": 33.2039740510303,
                "LONGITUDE": -97.0908801616591,
                "PFIZER_AVAILABLE": 0,
                "MODERNA_AVAILABLE": 0,
                "VACCINES_AVAILABLE": 0,
                "Total_Shipped": 60175,
                "PublicPhone": " 940 349 2585",
                "WEBSITE": "https://utswmed.org/covid-19/covid-19-vaccination/",
                "RemoveRecord": null,
                "LAST_UPDATE_VAC": "02/08/2021      ",
                "LAST_UPDATE_TIME_VAC": "18:09:56        ",
                "marker-symbol": "circle-15"
            }
        },
        {
            "type": "Feature",
            "geometry": {
                "type": "Point",
                "coordinates": [
                    -98.1751292,
                    26.3091714
                ]
            },
            "properties": {
                "OBJECTID": 299,
                "NAME": "Ut Health Rgv Employee Health Edinburg",
                "TYPE": "Vaccine Hub",
                "TSA": null,
                "STREET": "1210 W Schunior St",
                "CITY": "Edinburg",
                "COUNTY": "Hidalgo",
                "ADDRESS": "1210 W Schunior St",
                "ZIP": "78539",
                "LATITUDE": 26.3091714,
                "LONGITUDE": -98.1751292,
                "PFIZER_AVAILABLE": 0,
                "MODERNA_AVAILABLE": 0,
                "VACCINES_AVAILABLE": 0,
                "Total_Shipped": 14625,
                "PublicPhone": "833-888-2268",
                "WEBSITE": "http://www.uthealthrgv.org",
                "RemoveRecord": null,
                "LAST_UPDATE_VAC": "02/11/2021      ",
                "LAST_UPDATE_TIME_VAC": "19:51:39        ",
                "marker-symbol": "circle-15"
            }
        },
        {
            "type": "Feature",
            "geometry": {
                "type": "Point",
                "coordinates": [
                    -97.430295523922,
                    27.7578796529017
                ]
            },
            "properties": {
                "OBJECTID": 300,
                "NAME": "Corpus Christi-Nueces County Public Health District",
                "TYPE": "Vaccine Hub",
                "TSA": null,
                "STREET": "1702 Horne Road",
                "CITY": "Corpus Christi",
                "COUNTY": "Nueces",
                "ADDRESS": "1702 Horne Road",
                "ZIP": "78416",
                "LATITUDE": 27.7578796529017,
                "LONGITUDE": -97.430295523922,
                "PFIZER_AVAILABLE": 0,
                "MODERNA_AVAILABLE": 0,
                "VACCINES_AVAILABLE": 0,
                "Total_Shipped": 33200,
                "PublicPhone": "361-826-7200, option 2",
                "WEBSITE": "https://us1.quickscreen.health/corpus-christi-vaccination#/screening",
                "RemoveRecord": null,
                "LAST_UPDATE_VAC": "02/13/2021      ",
                "LAST_UPDATE_TIME_VAC": "09:31:54        ",
                "marker-symbol": "circle-15"
            }
        },
        {
            "type": "Feature",
            "geometry": {
                "type": "Point",
                "coordinates": [
                    -99.2318532,
                    28.4242958
                ]
            },
            "properties": {
                "OBJECTID": 307,
                "NAME": "La Salle County Regional Health Authority",
                "TYPE": "Vaccine Hub",
                "TSA": null,
                "STREET": "247 Mars Drive",
                "CITY": "Cotulla",
                "COUNTY": "La Salle",
                "ADDRESS": "951 Dobie Road",
                "ZIP": "78014",
                "LATITUDE": 28.4242958,
                "LONGITUDE": -99.2318532,
                "PFIZER_AVAILABLE": 0,
                "MODERNA_AVAILABLE": 0,
                "VACCINES_AVAILABLE": 0,
                "Total_Shipped": 3900,
                "PublicPhone": "830-483-5166",
                "WEBSITE": "https://www.co.la-salle.tx.us/",
                "RemoveRecord": null,
                "LAST_UPDATE_VAC": "02/13/2021      ",
                "LAST_UPDATE_TIME_VAC": "08:41:42        ",
                "marker-symbol": "circle-15"
            }
        },
        {
            "type": "Feature",
            "geometry": {
                "type": "Point",
                "coordinates": [
                    -100.4340459129,
                    31.463337997656
                ]
            },
            "properties": {
                "OBJECTID": 309,
                "NAME": "Shannon Pharmacy",
                "TYPE": "Vaccine Hub",
                "TSA": null,
                "STREET": "119 E Beauregard Ave",
                "CITY": "San Angelo",
                "COUNTY": "Tom Green",
                "ADDRESS": "119 E Beauregard Ave",
                "ZIP": "76903",
                "LATITUDE": 31.463337997656,
                "LONGITUDE": -100.4340459129,
                "PFIZER_AVAILABLE": 503,
                "MODERNA_AVAILABLE": 0,
                "VACCINES_AVAILABLE": 503,
                "Total_Shipped": 20800,
                "PublicPhone": "(325) 655-8191",
                "WEBSITE": "https://www.shannonhealth.com/services/pharmacy/",
                "RemoveRecord": null,
                "LAST_UPDATE_VAC": "02/13/2021      ",
                "LAST_UPDATE_TIME_VAC": "12:43:09        ",
                "marker-symbol": "circle-15"
            }
        },
        {
            "type": "Feature",
            "geometry": {
                "type": "Point",
                "coordinates": [
                    -96.1673962066452,
                    33.5783374056146
                ]
            },
            "properties": {
                "OBJECTID": 310,
                "NAME": "TMC Bonham Hospital ",
                "TYPE": "Vaccine Hub",
                "TSA": "E",
                "STREET": "504 Lipscomb St",
                "CITY": "Bonham",
                "COUNTY": "Fannin",
                "ADDRESS": "504 Lipscomb St",
                "ZIP": "75418",
                "LATITUDE": 33.5783374056146,
                "LONGITUDE": -96.1673962066452,
                "PFIZER_AVAILABLE": 0,
                "MODERNA_AVAILABLE": 0,
                "VACCINES_AVAILABLE": 0,
                "Total_Shipped": 5875,
                "PublicPhone": "(903) 583-8585",
                "WEBSITE": "https://tmcbonham.com/",
                "RemoveRecord": null,
                "LAST_UPDATE_VAC": "02/13/2021      ",
                "LAST_UPDATE_TIME_VAC": "07:29:01        ",
                "marker-symbol": "circle-15"
            }
        },
        {
            "type": "Feature",
            "geometry": {
                "type": "Point",
                "coordinates": [
                    -95.5602262210132,
                    33.6572812689099
                ]
            },
            "properties": {
                "OBJECTID": 321,
                "NAME": "Dept of Public Health - Lamar County / Paris",
                "TYPE": "Vaccine Hub",
                "TSA": null,
                "STREET": "400 W Sherman St",
                "CITY": "Paris",
                "COUNTY": "Lamar",
                "ADDRESS": "400 W Sherman St",
                "ZIP": "75460",
                "LATITUDE": 33.6572812689099,
                "LONGITUDE": -95.5602262210132,
                "PFIZER_AVAILABLE": 0,
                "MODERNA_AVAILABLE": 1000,
                "VACCINES_AVAILABLE": 1000,
                "Total_Shipped": 2600,
                "PublicPhone": "(903) 785-4561",
                "WEBSITE": "http://www.parislamarhealth.com/",
                "RemoveRecord": null,
                "LAST_UPDATE_VAC": "02/10/2021      ",
                "LAST_UPDATE_TIME_VAC": "07:52:09        ",
                "marker-symbol": "circle-15"
            }
        },
        {
            "type": "Feature",
            "geometry": {
                "type": "Point",
                "coordinates": [
                    -100.455679001844,
                    28.713219572822
                ]
            },
            "properties": {
                "OBJECTID": 325,
                "NAME": "Fort Duncan Regional Medical Center",
                "TYPE": "Vaccine Hub",
                "TSA": "P",
                "STREET": "3333 North Foster Maldonado Blvd",
                "CITY": "Eagle Pass",
                "COUNTY": "Maverick",
                "ADDRESS": "3333 North Foster Maldonado Blvd",
                "ZIP": "78852",
                "LATITUDE": 28.713219572822,
                "LONGITUDE": -100.455679001844,
                "PFIZER_AVAILABLE": 0,
                "MODERNA_AVAILABLE": 0,
                "VACCINES_AVAILABLE": 0,
                "Total_Shipped": 4100,
                "PublicPhone": "830-421-5151; 830-421-5122",
                "WEBSITE": "www.eaglepasstx.us/formcenter/covid19-7/covid19-vaccine-priority-groups-registra-52",
                "RemoveRecord": null,
                "LAST_UPDATE_VAC": "02/13/2021      ",
                "LAST_UPDATE_TIME_VAC": "09:55:26        ",
                "marker-symbol": "circle-15"
            }
        },
        {
            "type": "Feature",
            "geometry": {
                "type": "Point",
                "coordinates": [
                    -98.1488749030705,
                    26.2852713315401
                ]
            },
            "properties": {
                "OBJECTID": 416,
                "NAME": "Hidalgo County Health and Human Services",
                "TYPE": "Vaccine Hub",
                "TSA": null,
                "STREET": "1304 S 25th Ave",
                "CITY": "Edinburg",
                "COUNTY": "Hidalgo",
                "ADDRESS": "1304 S 25th Ave",
                "ZIP": "78542",
                "LATITUDE": 26.2852713315401,
                "LONGITUDE": -98.1488749030705,
                "PFIZER_AVAILABLE": 0,
                "MODERNA_AVAILABLE": 0,
                "VACCINES_AVAILABLE": 0,
                "Total_Shipped": 34200,
                "PublicPhone": "956-292-7765",
                "WEBSITE": "https://www.hidalgocounty.us/1032/Health-and-Human-Services",
                "RemoveRecord": null,
                "LAST_UPDATE_VAC": "02/13/2021      ",
                "LAST_UPDATE_TIME_VAC": "10:13:01        ",
                "marker-symbol": "circle-15"
            }
        },
        {
            "type": "Feature",
            "geometry": {
                "type": "Point",
                "coordinates": [
                    -98.1975530140283,
                    33.8139990089276
                ]
            },
            "properties": {
                "OBJECTID": 417,
                "NAME": "CLAY COUNTY MEMORIAL HOSPITAL",
                "TYPE": "Vaccine Hub",
                "TSA": "C",
                "STREET": "310 W South St",
                "CITY": "Henrietta",
                "COUNTY": "Clay",
                "ADDRESS": "310 W South St",
                "ZIP": "76365",
                "LATITUDE": 33.8139990089276,
                "LONGITUDE": -98.1975530140283,
                "PFIZER_AVAILABLE": 186,
                "MODERNA_AVAILABLE": 0,
                "VACCINES_AVAILABLE": 186,
                "Total_Shipped": 4100,
                "PublicPhone": "(940) 538-5621",
                "WEBSITE": "https://www.ccmhospital.com/",
                "RemoveRecord": null,
                "LAST_UPDATE_VAC": "02/12/2021      ",
                "LAST_UPDATE_TIME_VAC": "14:32:05        ",
                "marker-symbol": "circle-15"
            }
        },
        {
            "type": "Feature",
            "geometry": {
                "type": "Point",
                "coordinates": [
                    -97.3785263,
                    30.1100401
                ]
            },
            "properties": {
                "OBJECTID": 418,
                "NAME": "A+ Life Style Medical Group",
                "TYPE": "Vaccine Hub",
                "TSA": "O",
                "STREET": "815 Highway 71 West, Suite 1150",
                "CITY": "Bastrop",
                "COUNTY": "Bastrop",
                "ADDRESS": "815 Highway 71 West, Suite  1150",
                "ZIP": "78602",
                "LATITUDE": 30.1100401,
                "LONGITUDE": -97.3785263,
                "PFIZER_AVAILABLE": 0,
                "MODERNA_AVAILABLE": 0,
                "VACCINES_AVAILABLE": 0,
                "Total_Shipped": 4200,
                "PublicPhone": "866-268-2289",
                "WEBSITE": "https://www.Covac.info",
                "RemoveRecord": null,
                "LAST_UPDATE_VAC": "02/12/2021      ",
                "LAST_UPDATE_TIME_VAC": "13:54:02        ",
                "marker-symbol": "circle-15"
            }
        },
        {
            "type": "Feature",
            "geometry": {
                "type": "Point",
                "coordinates": [
                    -98.8804259611669,
                    30.2623038507357
                ]
            },
            "properties": {
                "OBJECTID": 430,
                "NAME": "HILL COUNTRY MEMORIAL HOSP - FREDERICKSBURG",
                "TYPE": "Vaccine Hub",
                "TSA": "P",
                "STREET": "1020 S State Highway 16",
                "CITY": "Fredericksburg",
                "COUNTY": "Gillespie",
                "ADDRESS": "1020 S State Highway 16",
                "ZIP": "78624",
                "LATITUDE": 30.2623038507357,
                "LONGITUDE": -98.8804259611669,
                "PFIZER_AVAILABLE": 0,
                "MODERNA_AVAILABLE": 1460,
                "VACCINES_AVAILABLE": 1460,
                "Total_Shipped": 6300,
                "PublicPhone": "830-990-6648",
                "WEBSITE": "https://www.hillcountrymemorial.org/covid-19-updates/",
                "RemoveRecord": null,
                "LAST_UPDATE_VAC": "02/13/2021      ",
                "LAST_UPDATE_TIME_VAC": "10:01:03        ",
                "marker-symbol": "circle-15"
            }
        },
        {
            "type": "Feature",
            "geometry": {
                "type": "Point",
                "coordinates": [
                    -101.8316,
                    33.578935
                ]
            },
            "properties": {
                "OBJECTID": 456,
                "NAME": "Lhd Lubbock City Health Dept",
                "TYPE": "Vaccine Hub",
                "TSA": null,
                "STREET": "806 18th St",
                "CITY": "Lubbock",
                "COUNTY": "Lubbock",
                "ADDRESS": "806 18th St",
                "ZIP": "79401",
                "LATITUDE": 33.578935,
                "LONGITUDE": -101.8316,
                "PFIZER_AVAILABLE": 0,
                "MODERNA_AVAILABLE": 0,
                "VACCINES_AVAILABLE": 0,
                "Total_Shipped": 39600,
                "PublicPhone": null,
                "WEBSITE": null,
                "RemoveRecord": null,
                "LAST_UPDATE_VAC": "02/13/2021      ",
                "LAST_UPDATE_TIME_VAC": "07:48:10        ",
                "marker-symbol": "circle-15"
            }
        },
        {
            "type": "Feature",
            "geometry": {
                "type": "Point",
                "coordinates": [
                    -97.7354625974477,
                    30.2524173121212
                ]
            },
            "properties": {
                "OBJECTID": 506,
                "NAME": "Austin Public Health Immunization Program Mobile",
                "TYPE": "Vaccine Hub",
                "TSA": null,
                "STREET": "15 Waller",
                "CITY": "Austin",
                "COUNTY": "Travis",
                "ADDRESS": "15 Waller",
                "ZIP": "78702",
                "LATITUDE": 30.2524173121212,
                "LONGITUDE": -97.7354625974477,
                "PFIZER_AVAILABLE": 0,
                "MODERNA_AVAILABLE": 1000,
                "VACCINES_AVAILABLE": 1000,
                "Total_Shipped": 600,
                "PublicPhone": "512-972-5560",
                "WEBSITE": "https://austintexas.gov/covid19",
                "RemoveRecord": null,
                "LAST_UPDATE_VAC": "02/10/2021      ",
                "LAST_UPDATE_TIME_VAC": "21:02:09        ",
                "marker-symbol": "circle-15"
            }
        },
        {
            "type": "Feature",
            "geometry": {
                "type": "Point",
                "coordinates": [
                    -98.5759039589092,
                    29.5070900160387
                ]
            },
            "properties": {
                "OBJECTID": 562,
                "NAME": "UT Health San Antonio Wellness 360",
                "TYPE": "Vaccine Hub",
                "TSA": null,
                "STREET": "7703 Floyd Curl Dr",
                "CITY": "San Antonio",
                "COUNTY": "Bexar",
                "ADDRESS": "7703 Floyd Curl Dr",
                "ZIP": "78229",
                "LATITUDE": 29.5070900160387,
                "LONGITUDE": -98.5759039589092,
                "PFIZER_AVAILABLE": 0,
                "MODERNA_AVAILABLE": 0,
                "VACCINES_AVAILABLE": 0,
                "Total_Shipped": 46800,
                "PublicPhone": "210-567-2788",
                "WEBSITE": "https://wellness360.uthealthsa.org/",
                "RemoveRecord": null,
                "LAST_UPDATE_VAC": "02/12/2021      ",
                "LAST_UPDATE_TIME_VAC": "07:02:57        ",
                "marker-symbol": "circle-15"
            }
        },
        {
            "type": "Feature",
            "geometry": {
                "type": "Point",
                "coordinates": [
                    -94.7787080308323,
                    29.3108899888168
                ]
            },
            "properties": {
                "OBJECTID": 575,
                "NAME": "UNIVERSITY OF TEXAS MEDICAL BRANCH",
                "TYPE": "Vaccine Hub",
                "TSA": "R",
                "STREET": "301 University Blvd",
                "CITY": "Galveston",
                "COUNTY": "Galveston",
                "ADDRESS": "301 University Blvd",
                "ZIP": "77555",
                "LATITUDE": 29.3108899888168,
                "LONGITUDE": -94.7787080308323,
                "PFIZER_AVAILABLE": 0,
                "MODERNA_AVAILABLE": 0,
                "VACCINES_AVAILABLE": 0,
                "Total_Shipped": 37675,
                "PublicPhone": "800-917-8906",
                "WEBSITE": "https://www.utmb.edu/covid-19/vaccine/patient-info",
                "RemoveRecord": null,
                "LAST_UPDATE_VAC": "02/12/2021      ",
                "LAST_UPDATE_TIME_VAC": "14:45:40        ",
                "marker-symbol": "circle-15"
            }
        },
        {
            "type": "Feature",
            "geometry": {
                "type": "Point",
                "coordinates": [
                    -97.7356333368157,
                    30.2769715107404
                ]
            },
            "properties": {
                "OBJECTID": 581,
                "NAME": "UT Health Dell Medical School",
                "TYPE": "Vaccine Hub",
                "TSA": null,
                "STREET": "1601 Trinity Avenue",
                "CITY": "Austin",
                "COUNTY": "Travis",
                "ADDRESS": "1601 Trinity Avenue",
                "ZIP": "78712",
                "LATITUDE": 30.2769715107404,
                "LONGITUDE": -97.7356333368157,
                "PFIZER_AVAILABLE": 0,
                "MODERNA_AVAILABLE": 0,
                "VACCINES_AVAILABLE": 0,
                "Total_Shipped": 20500,
                "PublicPhone": "1-833-UTCARES",
                "WEBSITE": "https://www.uthealthaustin.org",
                "RemoveRecord": null,
                "LAST_UPDATE_VAC": "02/13/2021      ",
                "LAST_UPDATE_TIME_VAC": "09:03:41        ",
                "marker-symbol": "circle-15"
            }
        },
        {
            "type": "Feature",
            "geometry": {
                "type": "Point",
                "coordinates": [
                    -97.6667194929626,
                    26.1744984948411
                ]
            },
            "properties": {
                "OBJECTID": 584,
                "NAME": "Ut Health Rgv Multispecialty",
                "TYPE": "Vaccine Hub",
                "TSA": null,
                "STREET": "2106 Treasure Hills Blvd Ste 1326",
                "CITY": "Harlingen",
                "COUNTY": "Cameron",
                "ADDRESS": "2106 Treasure Hills Blvd Ste 1326",
                "ZIP": "78550",
                "LATITUDE": 26.1744984948411,
                "LONGITUDE": -97.6667194929626,
                "PFIZER_AVAILABLE": 0,
                "MODERNA_AVAILABLE": 0,
                "VACCINES_AVAILABLE": 0,
                "Total_Shipped": 1100,
                "PublicPhone": "833-888-2268",
                "WEBSITE": "www.uthealthrgv.org",
                "RemoveRecord": null,
                "LAST_UPDATE_VAC": "02/12/2021      ",
                "LAST_UPDATE_TIME_VAC": "21:31:35        ",
                "marker-symbol": "circle-15"
            }
        },
        {
            "type": "Feature",
            "geometry": {
                "type": "Point",
                "coordinates": [
                    -95.213459998003,
                    32.4255790153637
                ]
            },
            "properties": {
                "OBJECTID": 585,
                "NAME": "UT Health Science Center at Tyler ",
                "TYPE": "Vaccine Hub",
                "TSA": "G",
                "STREET": "11937 Us Highway 271",
                "CITY": "Tyler",
                "COUNTY": "Smith",
                "ADDRESS": "11937 Us Highway 271",
                "ZIP": "75708",
                "LATITUDE": 32.4255790153637,
                "LONGITUDE": -95.213459998003,
                "PFIZER_AVAILABLE": 0,
                "MODERNA_AVAILABLE": 0,
                "VACCINES_AVAILABLE": 0,
                "Total_Shipped": 20600,
                "PublicPhone": "903-877-5703",
                "WEBSITE": "https://www.signupgenius.com/go/UT",
                "RemoveRecord": null,
                "LAST_UPDATE_VAC": "02/13/2021      ",
                "LAST_UPDATE_TIME_VAC": "11:26:28        ",
                "marker-symbol": "circle-15"
            }
        },
        {
            "type": "Feature",
            "geometry": {
                "type": "Point",
                "coordinates": [
                    -95.4059914757526,
                    29.6707709830585
                ]
            },
            "properties": {
                "OBJECTID": 590,
                "NAME": "The University of Texas Health Science Center at Houston",
                "TYPE": "Vaccine Hub",
                "TSA": "Q",
                "STREET": "1851 Crosspoint Ave.",
                "CITY": "Houston",
                "COUNTY": "Harris",
                "ADDRESS": "1851 Crosspoint Ave.",
                "ZIP": "77054",
                "LATITUDE": 29.6707709830585,
                "LONGITUDE": -95.4059914757526,
                "PFIZER_AVAILABLE": 0,
                "MODERNA_AVAILABLE": 0,
                "VACCINES_AVAILABLE": 0,
                "Total_Shipped": 37550,
                "PublicPhone": "713-500-7476",
                "WEBSITE": "https://www.utphysicians.com/covid19vaccine/",
                "RemoveRecord": null,
                "LAST_UPDATE_VAC": "02/13/2021      ",
                "LAST_UPDATE_TIME_VAC": "12:22:38        ",
                "marker-symbol": "circle-15"
            }
        },
        {
            "type": "Feature",
            "geometry": {
                "type": "Point",
                "coordinates": [
                    -97.5034925050584,
                    28.0366930589251
                ]
            },
            "properties": {
                "OBJECTID": 603,
                "NAME": "Community Action Health Center",
                "TYPE": "Vaccine Hub",
                "TSA": "U",
                "STREET": "621 E SINTON ST",
                "CITY": "Sinton",
                "COUNTY": "San Patricio",
                "ADDRESS": "621 E SINTON ST",
                "ZIP": "78387",
                "LATITUDE": 28.0366930589251,
                "LONGITUDE": -97.5034925050584,
                "PFIZER_AVAILABLE": 0,
                "MODERNA_AVAILABLE": 0,
                "VACCINES_AVAILABLE": 0,
                "Total_Shipped": 200,
                "PublicPhone": "(361) 364-4486",
                "WEBSITE": "www.cacost.org",
                "RemoveRecord": null,
                "LAST_UPDATE_VAC": "02/11/2021      ",
                "LAST_UPDATE_TIME_VAC": "19:09:24        ",
                "marker-symbol": "circle-15"
            }
        },
        {
            "type": "Feature",
            "geometry": {
                "type": "Point",
                "coordinates": [
                    -97.31905,
                    32.58651
                ]
            },
            "properties": {
                "OBJECTID": 619,
                "NAME": "Texas Health Resources - HUGULEY HOSP - BURLESON",
                "TYPE": "Vaccine Hub",
                "TSA": "E",
                "STREET": "11801 South Freeway",
                "CITY": "Burleson",
                "COUNTY": "Tarrant",
                "ADDRESS": "11801 South Freeway, Burleson, TX, 76028",
                "ZIP": "76028",
                "LATITUDE": 32.58651,
                "LONGITUDE": -97.31905,
                "PFIZER_AVAILABLE": 0,
                "MODERNA_AVAILABLE": 140,
                "VACCINES_AVAILABLE": 140,
                "Total_Shipped": 8800,
                "PublicPhone": "817-248-6299 Option 7",
                "WEBSITE": "www.tarrantcounty.com/COVIDshot",
                "RemoveRecord": null,
                "LAST_UPDATE_VAC": "02/12/2021      ",
                "LAST_UPDATE_TIME_VAC": "07:48:04        ",
                "marker-symbol": "circle-15"
            }
        },
        {
            "type": "Feature",
            "geometry": {
                "type": "Point",
                "coordinates": [
                    -99.7685500106039,
                    29.2150948086987
                ]
            },
            "properties": {
                "OBJECTID": 638,
                "NAME": "Uvalde Memorial Hospital",
                "TYPE": "Vaccine Hub",
                "TSA": "P",
                "STREET": "1025 Garner Field Rd",
                "CITY": "Uvalde",
                "COUNTY": "Uvalde",
                "ADDRESS": "1025 Garner Field Rd",
                "ZIP": "78801",
                "LATITUDE": 29.2150948086987,
                "LONGITUDE": -99.7685500106039,
                "PFIZER_AVAILABLE": 0,
                "MODERNA_AVAILABLE": 0,
                "VACCINES_AVAILABLE": 0,
                "Total_Shipped": 6175,
                "PublicPhone": "830-407-8022",
                "WEBSITE": "http://www.umhtx.org/patient/covid-19-update/",
                "RemoveRecord": null,
                "LAST_UPDATE_VAC": "02/13/2021      ",
                "LAST_UPDATE_TIME_VAC": "07:44:09        ",
                "marker-symbol": "circle-15"
            }
        },
        {
            "type": "Feature",
            "geometry": {
                "type": "Point",
                "coordinates": [
                    -94.6621177693188,
                    29.7748702390934
                ]
            },
            "properties": {
                "OBJECTID": 650,
                "NAME": "Chambers County Health Department",
                "TYPE": "Vaccine Hub",
                "TSA": null,
                "STREET": "102 Airport Rd",
                "CITY": "Anahuac",
                "COUNTY": "Chambers",
                "ADDRESS": "102 Airport Rd",
                "ZIP": "77514",
                "LATITUDE": 29.7748702390934,
                "LONGITUDE": -94.6621177693188,
                "PFIZER_AVAILABLE": 0,
                "MODERNA_AVAILABLE": 1100,
                "VACCINES_AVAILABLE": 1100,
                "Total_Shipped": 5800,
                "PublicPhone": "409-267-2460",
                "WEBSITE": "https://www.co.chambers.tx.us/page/covidvaccine",
                "RemoveRecord": null,
                "LAST_UPDATE_VAC": "02/12/2021      ",
                "LAST_UPDATE_TIME_VAC": "21:43:23        ",
                "marker-symbol": "circle-15"
            }
        },
        {
            "type": "Feature",
            "geometry": {
                "type": "Point",
                "coordinates": [
                    -95.471444248907,
                    30.2847737634019
                ]
            },
            "properties": {
                "OBJECTID": 786,
                "NAME": "Lone Star Family Health Center",
                "TYPE": "Vaccine Hub",
                "TSA": null,
                "STREET": "605 S Conroe Medical Dr",
                "CITY": "Conroe",
                "COUNTY": "Montgomery",
                "ADDRESS": "605 S Conroe Medical Dr",
                "ZIP": "77304",
                "LATITUDE": 30.2847737634019,
                "LONGITUDE": -95.471444248907,
                "PFIZER_AVAILABLE": 0,
                "MODERNA_AVAILABLE": 0,
                "VACCINES_AVAILABLE": 0,
                "Total_Shipped": 8600,
                "PublicPhone": "936-523-5230",
                "WEBSITE": "https://www.lonestarvaccine.com",
                "RemoveRecord": null,
                "LAST_UPDATE_VAC": "02/12/2021      ",
                "LAST_UPDATE_TIME_VAC": "19:42:44        ",
                "marker-symbol": "circle-15"
            }
        },
        {
            "type": "Feature",
            "geometry": {
                "type": "Point",
                "coordinates": [
                    -95.3008364771029,
                    32.3586265520932
                ]
            },
            "properties": {
                "OBJECTID": 794,
                "NAME": "Lhd Nethealth Re",
                "TYPE": "Vaccine Hub",
                "TSA": null,
                "STREET": "815 N Broadway",
                "CITY": "Tyler",
                "COUNTY": "Smith",
                "ADDRESS": "815 N Broadway",
                "ZIP": "75702",
                "LATITUDE": 32.3586265520932,
                "LONGITUDE": -95.3008364771029,
                "PFIZER_AVAILABLE": 678,
                "MODERNA_AVAILABLE": 50,
                "VACCINES_AVAILABLE": 728,
                "Total_Shipped": 14400,
                "PublicPhone": "(903) 535-0020",
                "WEBSITE": "https://www.nethealthcovid19.org/",
                "RemoveRecord": null,
                "LAST_UPDATE_VAC": "02/13/2021      ",
                "LAST_UPDATE_TIME_VAC": "07:26:58        ",
                "marker-symbol": "circle-15"
            }
        },
        {
            "type": "Feature",
            "geometry": {
                "type": "Point",
                "coordinates": [
                    -97.9424713466867,
                    29.8616713304617
                ]
            },
            "properties": {
                "OBJECTID": 796,
                "NAME": "Lhd Hays County Health Department Re",
                "TYPE": "Vaccine Hub",
                "TSA": null,
                "STREET": "broadway",
                "CITY": "san marcos",
                "COUNTY": "bexar",
                "ADDRESS": "401 Broadway St Ste A",
                "ZIP": "78666",
                "LATITUDE": 29.8616713304617,
                "LONGITUDE": -97.9424713466867,
                "PFIZER_AVAILABLE": 0,
                "MODERNA_AVAILABLE": 0,
                "VACCINES_AVAILABLE": 0,
                "Total_Shipped": 9750,
                "PublicPhone": "512-393-5520",
                "WEBSITE": "https://hayscountytx.com/departments/local-health-department/",
                "RemoveRecord": null,
                "LAST_UPDATE_VAC": "02/12/2021      ",
                "LAST_UPDATE_TIME_VAC": "15:45:22        ",
                "marker-symbol": "circle-15"
            }
        },
        {
            "type": "Feature",
            "geometry": {
                "type": "Point",
                "coordinates": [
                    -96.46853,
                    32.09842
                ]
            },
            "properties": {
                "OBJECTID": 797,
                "NAME": "LHD Corsicana-Navarro Public Health District",
                "TYPE": "Vaccine Hub",
                "TSA": "E",
                "STREET": "618 N MAIN",
                "CITY": "CORSICANA",
                "COUNTY": "Navarro",
                "ADDRESS": "618 N MAIN",
                "ZIP": "75110",
                "LATITUDE": 32.09842,
                "LONGITUDE": -96.46853,
                "PFIZER_AVAILABLE": 0,
                "MODERNA_AVAILABLE": 0,
                "VACCINES_AVAILABLE": 0,
                "Total_Shipped": 5100,
                "PublicPhone": "\"903-875-3977 (English line) 903-875-3978 (Spanish line)  \"",
                "WEBSITE": "https://www.navarrocountyoem.org",
                "RemoveRecord": null,
                "LAST_UPDATE_VAC": "02/13/2021      ",
                "LAST_UPDATE_TIME_VAC": "11:53:52        ",
                "marker-symbol": "circle-15"
            }
        },
        {
            "type": "Feature",
            "geometry": {
                "type": "Point",
                "coordinates": [
                    -99.8630979097743,
                    28.5194690984298
                ]
            },
            "properties": {
                "OBJECTID": 821,
                "NAME": "DIMMIT REGIONAL HOSPITAL",
                "TYPE": "Vaccine Hub",
                "TSA": "P",
                "STREET": "704 Hospital Dr",
                "CITY": "Carrizo Springs",
                "COUNTY": "Dimmit",
                "ADDRESS": "704 Hospital Dr",
                "ZIP": "78834",
                "LATITUDE": 28.5194690984298,
                "LONGITUDE": -99.8630979097743,
                "PFIZER_AVAILABLE": 0,
                "MODERNA_AVAILABLE": 0,
                "VACCINES_AVAILABLE": 0,
                "Total_Shipped": 5275,
                "PublicPhone": " (830) 448 - 2210",
                "WEBSITE": "http://dimmitregionalhospital.com/",
                "RemoveRecord": null,
                "LAST_UPDATE_VAC": "02/12/2021      ",
                "LAST_UPDATE_TIME_VAC": "14:26:18        ",
                "marker-symbol": "circle-15"
            }
        },
        {
            "type": "Feature",
            "geometry": {
                "type": "Point",
                "coordinates": [
                    -96.894062,
                    31.307442
                ]
            },
            "properties": {
                "OBJECTID": 826,
                "NAME": "Falls Community Hospital & Clinic",
                "TYPE": "Vaccine Hub",
                "TSA": "M",
                "STREET": "322 Coleman Street",
                "CITY": " Marlin",
                "COUNTY": "Falls",
                "ADDRESS": "307 Live Oak Street Marlin, TX  76661",
                "ZIP": "76661",
                "LATITUDE": 31.307442,
                "LONGITUDE": -96.894062,
                "PFIZER_AVAILABLE": 0,
                "MODERNA_AVAILABLE": 0,
                "VACCINES_AVAILABLE": 0,
                "Total_Shipped": 5075,
                "PublicPhone": "254-252-2667",
                "WEBSITE": "http://www.fallshospital.com/",
                "RemoveRecord": null,
                "LAST_UPDATE_VAC": "02/11/2021      ",
                "LAST_UPDATE_TIME_VAC": "09:11:08        ",
                "marker-symbol": "circle-15"
            }
        },
        {
            "type": "Feature",
            "geometry": {
                "type": "Point",
                "coordinates": [
                    -97.198239517025,
                    31.5139470908391
                ]
            },
            "properties": {
                "OBJECTID": 827,
                "NAME": "Providence Health Center",
                "TYPE": "Vaccine Hub",
                "TSA": "M",
                "STREET": "6901 Medical Pkwy",
                "CITY": "Waco",
                "COUNTY": "McLennan",
                "ADDRESS": "6901 Medical Pkwy",
                "ZIP": "76712",
                "LATITUDE": 31.5139470908391,
                "LONGITUDE": -97.198239517025,
                "PFIZER_AVAILABLE": 0,
                "MODERNA_AVAILABLE": 0,
                "VACCINES_AVAILABLE": 0,
                "Total_Shipped": 15000,
                "PublicPhone": "254-751-4000",
                "WEBSITE": "https://www.healthcare.ascension.org",
                "RemoveRecord": null,
                "LAST_UPDATE_VAC": "02/13/2021      ",
                "LAST_UPDATE_TIME_VAC": "08:14:59        ",
                "marker-symbol": "circle-15"
            }
        },
        {
            "type": "Feature",
            "geometry": {
                "type": "Point",
                "coordinates": [
                    -102.364927950485,
                    31.8520192531179
                ]
            },
            "properties": {
                "OBJECTID": 828,
                "NAME": "ODESSA REGIONAL MEDICAL CENTER HOSPITAL",
                "TYPE": "Vaccine Hub",
                "TSA": "J",
                "STREET": "520 E 6th St",
                "CITY": "Odessa",
                "COUNTY": "Ector",
                "ADDRESS": "520 E 6th St",
                "ZIP": "79761",
                "LATITUDE": 31.8520192531179,
                "LONGITUDE": -102.364927950485,
                "PFIZER_AVAILABLE": 0,
                "MODERNA_AVAILABLE": 0,
                "VACCINES_AVAILABLE": 0,
                "Total_Shipped": 3500,
                "PublicPhone": "432-640-2220",
                "WEBSITE": "http://www.mchodessa.com/",
                "RemoveRecord": null,
                "LAST_UPDATE_VAC": "02/12/2021      ",
                "LAST_UPDATE_TIME_VAC": "08:12:05        ",
                "marker-symbol": "circle-15"
            }
        },
        {
            "type": "Feature",
            "geometry": {
                "type": "Point",
                "coordinates": [
                    -102.100177324424,
                    31.9974792618293
                ]
            },
            "properties": {
                "OBJECTID": 830,
                "NAME": "MIDLAND MEMORIAL HOSPITAL MAIN",
                "TYPE": "Vaccine Hub",
                "TSA": "J",
                "STREET": "400 Rosalind Redfern Grover Pkwy",
                "CITY": "Midland",
                "COUNTY": "Midland",
                "ADDRESS": "400 Rosalind Redfern Grover Pkwy",
                "ZIP": "79701",
                "LATITUDE": 31.9974792618293,
                "LONGITUDE": -102.100177324424,
                "PFIZER_AVAILABLE": 685,
                "MODERNA_AVAILABLE": 0,
                "VACCINES_AVAILABLE": 685,
                "Total_Shipped": 28475,
                "PublicPhone": "432-686-8773",
                "WEBSITE": "https://www.midlandhealth.org/vaccine",
                "RemoveRecord": null,
                "LAST_UPDATE_VAC": "02/12/2021      ",
                "LAST_UPDATE_TIME_VAC": "21:04:11        ",
                "marker-symbol": "circle-15"
            }
        },
        {
            "type": "Feature",
            "geometry": {
                "type": "Point",
                "coordinates": [
                    -96.3466102426622,
                    30.6555690852254
                ]
            },
            "properties": {
                "OBJECTID": 834,
                "NAME": "CHI St Joseph Health College Station Hospital",
                "TYPE": "Vaccine Hub",
                "TSA": "N",
                "STREET": "2801 Franciscan Drive",
                "CITY": "Bryan",
                "COUNTY": "Brazos",
                "ADDRESS": "2801 Franciscan Drive",
                "ZIP": "77802",
                "LATITUDE": 30.6555690852254,
                "LONGITUDE": -96.3466102426622,
                "PFIZER_AVAILABLE": 0,
                "MODERNA_AVAILABLE": 3000,
                "VACCINES_AVAILABLE": 3000,
                "Total_Shipped": 12800,
                "PublicPhone": "979-776-3777",
                "WEBSITE": "https://st-joseph.org/covidvaccine",
                "RemoveRecord": null,
                "LAST_UPDATE_VAC": "02/13/2021      ",
                "LAST_UPDATE_TIME_VAC": "10:06:30        ",
                "marker-symbol": "circle-15"
            }
        },
        {
            "type": "Feature",
            "geometry": {
                "type": "Point",
                "coordinates": [
                    -99.7338209672523,
                    32.4721709976309
                ]
            },
            "properties": {
                "OBJECTID": 835,
                "NAME": "HENDRICK MEDICAL CENTER",
                "TYPE": "Vaccine Hub",
                "TSA": "D",
                "STREET": "1900 Pine Street",
                "CITY": "Abilene",
                "COUNTY": "Taylor",
                "ADDRESS": "1900 Pine Street",
                "ZIP": "79601",
                "LATITUDE": 32.4721709976309,
                "LONGITUDE": -99.7338209672523,
                "PFIZER_AVAILABLE": 0,
                "MODERNA_AVAILABLE": 0,
                "VACCINES_AVAILABLE": 0,
                "Total_Shipped": 12200,
                "PublicPhone": "325-692-5600",
                "WEBSITE": "https://www.abilenetx.gov/CivicAlerts.aspx?AID=762",
                "RemoveRecord": null,
                "LAST_UPDATE_VAC": "02/13/2021      ",
                "LAST_UPDATE_TIME_VAC": "14:22:34        ",
                "marker-symbol": "circle-15"
            }
        },
        {
            "type": "Feature",
            "geometry": {
                "type": "Point",
                "coordinates": [
                    -97.847583,
                    27.491449
                ]
            },
            "properties": {
                "OBJECTID": 837,
                "NAME": "Christus Spohn Health System - Kleberg",
                "TYPE": "Vaccine Hub",
                "TSA": "U",
                "STREET": "1311 East General Cavazos Boulevard",
                "CITY": "Kingsville",
                "COUNTY": "Kleberg",
                "ADDRESS": "1311 East General Cavazos Boulevard, Kingsville, TX, 78363",
                "ZIP": "78363",
                "LATITUDE": 27.491449,
                "LONGITUDE": -97.847583,
                "PFIZER_AVAILABLE": 0,
                "MODERNA_AVAILABLE": 0,
                "VACCINES_AVAILABLE": 0,
                "Total_Shipped": 5275,
                "PublicPhone": "877-335-5746",
                "WEBSITE": "https://www.christushealth.org/vaccine",
                "RemoveRecord": null,
                "LAST_UPDATE_VAC": "02/11/2021      ",
                "LAST_UPDATE_TIME_VAC": "10:16:53        ",
                "marker-symbol": "circle-15"
            }
        },
        {
            "type": "Feature",
            "geometry": {
                "type": "Point",
                "coordinates": [
                    -97.7327868939128,
                    28.4078644760829
                ]
            },
            "properties": {
                "OBJECTID": 839,
                "NAME": "Christus Spohn Health System - Beeville",
                "TYPE": "Vaccine Hub",
                "TSA": "U",
                "STREET": "1500 E Houston St",
                "CITY": "Beeville",
                "COUNTY": "Bee",
                "ADDRESS": "1500 E Houston St",
                "ZIP": "78102",
                "LATITUDE": 28.4078644760829,
                "LONGITUDE": -97.7327868939128,
                "PFIZER_AVAILABLE": 0,
                "MODERNA_AVAILABLE": 0,
                "VACCINES_AVAILABLE": 0,
                "Total_Shipped": 10150,
                "PublicPhone": "877-335-5746",
                "WEBSITE": "https://www.christushealth.org/vaccine",
                "RemoveRecord": null,
                "LAST_UPDATE_VAC": "02/13/2021      ",
                "LAST_UPDATE_TIME_VAC": "09:10:03        ",
                "marker-symbol": "circle-15"
            }
        },
        {
            "type": "Feature",
            "geometry": {
                "type": "Point",
                "coordinates": [
                    -98.0449535405211,
                    27.7645552490032
                ]
            },
            "properties": {
                "OBJECTID": 840,
                "NAME": "Christus Spohn Health System - Alice",
                "TYPE": "Vaccine Hub",
                "TSA": "U",
                "STREET": "2500 E Main St",
                "CITY": "Alice",
                "COUNTY": "Jim Wells",
                "ADDRESS": "2500 E Main St",
                "ZIP": "78332",
                "LATITUDE": 27.7645552490032,
                "LONGITUDE": -98.0449535405211,
                "PFIZER_AVAILABLE": 1170,
                "MODERNA_AVAILABLE": 0,
                "VACCINES_AVAILABLE": 1170,
                "Total_Shipped": 5275,
                "PublicPhone": "877-335-5746",
                "WEBSITE": "https://www.christushealth.org/vaccine",
                "RemoveRecord": null,
                "LAST_UPDATE_VAC": "02/12/2021      ",
                "LAST_UPDATE_TIME_VAC": "07:32:47        ",
                "marker-symbol": "circle-15"
            }
        },
        {
            "type": "Feature",
            "geometry": {
                "type": "Point",
                "coordinates": [
                    -99.4896515177051,
                    27.520095201917
                ]
            },
            "properties": {
                "OBJECTID": 850,
                "NAME": "Dept of Public Health - Laredo",
                "TYPE": "Vaccine Hub",
                "TSA": "T",
                "STREET": "2600 Cedar",
                "CITY": "Laredo",
                "COUNTY": "Webb",
                "ADDRESS": "2600 Cedar",
                "ZIP": "78040",
                "LATITUDE": 27.520095201917,
                "LONGITUDE": -99.4896515177051,
                "PFIZER_AVAILABLE": 0,
                "MODERNA_AVAILABLE": 40,
                "VACCINES_AVAILABLE": 40,
                "Total_Shipped": 18200,
                "PublicPhone": "956-795-4920",
                "WEBSITE": "https://vaccinatelaredo.timetap.com/#/",
                "RemoveRecord": null,
                "LAST_UPDATE_VAC": "02/12/2021      ",
                "LAST_UPDATE_TIME_VAC": "08:53:37        ",
                "marker-symbol": "circle-15"
            }
        },
        {
            "type": "Feature",
            "geometry": {
                "type": "Point",
                "coordinates": [
                    -97.7754328762065,
                    30.5381776814059
                ]
            },
            "properties": {
                "OBJECTID": 851,
                "NAME": "Family Emergency Room at Cedar Park",
                "TYPE": "Vaccine Hub",
                "TSA": "O",
                "STREET": "3620 E Whitestone Blvd",
                "CITY": "Cedar Park",
                "COUNTY": "Williamson",
                "ADDRESS": "3620 E Whitestone Blvd",
                "ZIP": "78613",
                "LATITUDE": 30.5381776814059,
                "LONGITUDE": -97.7754328762065,
                "PFIZER_AVAILABLE": 0,
                "MODERNA_AVAILABLE": 0,
                "VACCINES_AVAILABLE": 0,
                "Total_Shipped": 31300,
                "PublicPhone": "833-984-3747",
                "WEBSITE": "https://familyhospitalsystems.com/services/covid-19/",
                "RemoveRecord": null,
                "LAST_UPDATE_VAC": "02/13/2021      ",
                "LAST_UPDATE_TIME_VAC": "08:03:18        ",
                "marker-symbol": "circle-15"
            }
        },
        {
            "type": "Feature",
            "geometry": {
                "type": "Point",
                "coordinates": [
                    -94.7475458750258,
                    31.3380349992486
                ]
            },
            "properties": {
                "OBJECTID": 925,
                "NAME": "Dept of Public Health - Angelina County / Lufkin",
                "TYPE": "Vaccine Hub",
                "TSA": null,
                "STREET": "503 Hill Street",
                "CITY": "Lufkin",
                "COUNTY": "Angelina",
                "ADDRESS": "503 Hill Street",
                "ZIP": "75904",
                "LATITUDE": 31.3380349992486,
                "LONGITUDE": -94.7475458750258,
                "PFIZER_AVAILABLE": 0,
                "MODERNA_AVAILABLE": 0,
                "VACCINES_AVAILABLE": 0,
                "Total_Shipped": 3700,
                "PublicPhone": "(936) 632-1139",
                "WEBSITE": "http://www.acchd.us/",
                "RemoveRecord": null,
                "LAST_UPDATE_VAC": "02/13/2021      ",
                "LAST_UPDATE_TIME_VAC": "12:26:15        ",
                "marker-symbol": "circle-15"
            }
        },
        {
            "type": "Feature",
            "geometry": {
                "type": "Point",
                "coordinates": [
                    -97.6543969370678,
                    26.140153313121
                ]
            },
            "properties": {
                "OBJECTID": 943,
                "NAME": "Dept of Public Health - Cameron County",
                "TYPE": "Vaccine Hub",
                "TSA": null,
                "STREET": "1390 W Expressway 83",
                "CITY": "San Benito",
                "COUNTY": "Cameron",
                "ADDRESS": "1390 W Expressway 83",
                "ZIP": "78586",
                "LATITUDE": 26.140153313121,
                "LONGITUDE": -97.6543969370678,
                "PFIZER_AVAILABLE": 0,
                "MODERNA_AVAILABLE": 0,
                "VACCINES_AVAILABLE": 0,
                "Total_Shipped": 4400,
                "PublicPhone": "956-247-3650",
                "WEBSITE": "https://www.cameroncounty.us/publichealth/index.php/coronavirus/",
                "RemoveRecord": null,
                "LAST_UPDATE_VAC": "02/13/2021      ",
                "LAST_UPDATE_TIME_VAC": "09:06:00        ",
                "marker-symbol": "circle-15"
            }
        },
        {
            "type": "Feature",
            "geometry": {
                "type": "Point",
                "coordinates": [
                    -96.6119218355515,
                    33.2055924489892
                ]
            },
            "properties": {
                "OBJECTID": 944,
                "NAME": "Dept of Public Health - Collin County / McKinney",
                "TYPE": "Vaccine Hub",
                "TSA": "E",
                "STREET": "825 N. McDonald St.",
                "CITY": "McKinney",
                "COUNTY": "Collin",
                "ADDRESS": "825 N. McDonald St., Suite 145",
                "ZIP": "75069",
                "LATITUDE": 33.2055924489892,
                "LONGITUDE": -96.6119218355515,
                "PFIZER_AVAILABLE": 0,
                "MODERNA_AVAILABLE": 0,
                "VACCINES_AVAILABLE": 0,
                "Total_Shipped": 19150,
                "PublicPhone": "214-491-4838",
                "WEBSITE": "https://www.collincountytx.gov/healthcare_services/Pages/COVID19vaccines.aspx",
                "RemoveRecord": null,
                "LAST_UPDATE_VAC": "02/12/2021      ",
                "LAST_UPDATE_TIME_VAC": "10:25:08        ",
                "marker-symbol": "circle-15"
            }
        },
        {
            "type": "Feature",
            "geometry": {
                "type": "Point",
                "coordinates": [
                    -98.7125772,
                    29.7659511
                ]
            },
            "properties": {
                "OBJECTID": 945,
                "NAME": "City of Boerne",
                "TYPE": "Vaccine Hub",
                "TSA": null,
                "STREET": "202 W Kronkosky St",
                "CITY": "Boerne",
                "COUNTY": "Kendall",
                "ADDRESS": "124 Old San Antonio Rd, Boerne, TX, USA",
                "ZIP": "2611",
                "LATITUDE": 29.7659511,
                "LONGITUDE": -98.7125772,
                "PFIZER_AVAILABLE": 0,
                "MODERNA_AVAILABLE": 0,
                "VACCINES_AVAILABLE": 0,
                "Total_Shipped": 400,
                "PublicPhone": null,
                "WEBSITE": null,
                "RemoveRecord": null,
                "LAST_UPDATE_VAC": "02/12/2021      ",
                "LAST_UPDATE_TIME_VAC": "18:12:56        ",
                "marker-symbol": "circle-15"
            }
        },
        {
            "type": "Feature",
            "geometry": {
                "type": "Point",
                "coordinates": [
                    -97.32002,
                    32.730265
                ]
            },
            "properties": {
                "OBJECTID": 952,
                "NAME": "Dept of Public Health - Tarrant County",
                "TYPE": "Vaccine Hub",
                "TSA": null,
                "STREET": "1101 S Main St Ste 1350",
                "CITY": "Fort Worth",
                "COUNTY": "Tarrant",
                "ADDRESS": "1101 S Main St Suite. 1350",
                "ZIP": "76104",
                "LATITUDE": 32.730265,
                "LONGITUDE": -97.32002,
                "PFIZER_AVAILABLE": 0,
                "MODERNA_AVAILABLE": 9260,
                "VACCINES_AVAILABLE": 9260,
                "Total_Shipped": 93250,
                "PublicPhone": "817-248-6299 Option 7",
                "WEBSITE": "www.tarrantcounty.com/COVIDshot",
                "RemoveRecord": null,
                "LAST_UPDATE_VAC": "02/13/2021      ",
                "LAST_UPDATE_TIME_VAC": "07:46:18        ",
                "marker-symbol": "circle-15"
            }
        },
        {
            "type": "Feature",
            "geometry": {
                "type": "Point",
                "coordinates": [
                    -97.3546731,
                    31.1096332
                ]
            },
            "properties": {
                "OBJECTID": 956,
                "NAME": "Dept of Public Health - Bell County",
                "TYPE": "Vaccine Hub",
                "TSA": null,
                "STREET": "820 N 31st St",
                "CITY": "Temple",
                "COUNTY": "Bell",
                "ADDRESS": "820 North 31st Street, Temple, TX, USA",
                "ZIP": "76504",
                "LATITUDE": 31.1096332,
                "LONGITUDE": -97.3546731,
                "PFIZER_AVAILABLE": 0,
                "MODERNA_AVAILABLE": 0,
                "VACCINES_AVAILABLE": 0,
                "Total_Shipped": 27600,
                "PublicPhone": "(254) 778-4766",
                "WEBSITE": "https://www.bellcountyhealth.org/",
                "RemoveRecord": null,
                "LAST_UPDATE_VAC": "02/13/2021      ",
                "LAST_UPDATE_TIME_VAC": "08:40:55        ",
                "marker-symbol": "circle-15"
            }
        },
        {
            "type": "Feature",
            "geometry": {
                "type": "Point",
                "coordinates": [
                    -97.6543969370678,
                    26.140153313121
                ]
            },
            "properties": {
                "OBJECTID": 984,
                "NAME": "Ccdhhs San Benito Nursing Office",
                "TYPE": "Vaccine Hub",
                "TSA": null,
                "STREET": "1390 W Expressway 83",
                "CITY": "San Benito",
                "COUNTY": "Cameron",
                "ADDRESS": "1390 W Expressway 83",
                "ZIP": "78586",
                "LATITUDE": 26.140153313121,
                "LONGITUDE": -97.6543969370678,
                "PFIZER_AVAILABLE": 0,
                "MODERNA_AVAILABLE": 0,
                "VACCINES_AVAILABLE": 0,
                "Total_Shipped": 40500,
                "PublicPhone": "(956) 361-8244",
                "WEBSITE": "http://www.co.cameron.tx.us/",
                "RemoveRecord": null,
                "LAST_UPDATE_VAC": "02/13/2021      ",
                "LAST_UPDATE_TIME_VAC": "09:07:00        ",
                "marker-symbol": "circle-15"
            }
        },
        {
            "type": "Feature",
            "geometry": {
                "type": "Point",
                "coordinates": [
                    -94.0750877438464,
                    33.462346803147
                ]
            },
            "properties": {
                "OBJECTID": 991,
                "NAME": "CHRISTUS ST. MICHAEL HOSPITAL",
                "TYPE": "Vaccine Hub",
                "TSA": "F",
                "STREET": "2600 Saint Michael Dr",
                "CITY": "Texarkana",
                "COUNTY": "Bowie",
                "ADDRESS": "2600 Saint Michael Dr",
                "ZIP": "75503",
                "LATITUDE": 33.462346803147,
                "LONGITUDE": -94.0750877438464,
                "PFIZER_AVAILABLE": 59,
                "MODERNA_AVAILABLE": 0,
                "VACCINES_AVAILABLE": 59,
                "Total_Shipped": 7400,
                "PublicPhone": "(903) 614-1000",
                "WEBSITE": "https://www.christushealth.org/St-Michael?utm_source=organic&utm_medium=GMB&utm_campaign=website&y_source=1_MTUzNzY1OTMtNzE1LWxvY2F0aW9uLmdvb2dsZV93ZWJzaXRlX292ZXJyaWRl",
                "RemoveRecord": null,
                "LAST_UPDATE_VAC": "02/13/2021      ",
                "LAST_UPDATE_TIME_VAC": "06:35:07        ",
                "marker-symbol": "circle-15"
            }
        },
        {
            "type": "Feature",
            "geometry": {
                "type": "Point",
                "coordinates": [
                    -96.8598110689073,
                    32.4294643811447
                ]
            },
            "properties": {
                "OBJECTID": 1009,
                "NAME": "BAYLOR SCOTT WHITE MC - WAXAHACHIE",
                "TYPE": "Vaccine Hub",
                "TSA": "E",
                "STREET": "2400 N I35e",
                "CITY": "Waxahachie",
                "COUNTY": "Ellis",
                "ADDRESS": "2400 N I35e",
                "ZIP": "75165",
                "LATITUDE": 32.4294643811447,
                "LONGITUDE": -96.8598110689073,
                "PFIZER_AVAILABLE": 0,
                "MODERNA_AVAILABLE": 0,
                "VACCINES_AVAILABLE": 0,
                "Total_Shipped": 9000,
                "PublicPhone": "(972) 579-8100",
                "WEBSITE": "https://www.bswhealth.com/locations/irving/?y_source=1_MTM0MTE3MDAtNzE1LWxvY2F0aW9uLndlYnNpdGU=",
                "RemoveRecord": null,
                "LAST_UPDATE_VAC": "02/13/2021      ",
                "LAST_UPDATE_TIME_VAC": "10:36:45        ",
                "marker-symbol": "circle-15"
            }
        },
        {
            "type": "Feature",
            "geometry": {
                "type": "Point",
                "coordinates": [
                    -95.544491864529,
                    29.7808159840205
                ]
            },
            "properties": {
                "OBJECTID": 1039,
                "NAME": "MEMORIAL HERMANN MEMORIAL CITY",
                "TYPE": "Vaccine Hub",
                "TSA": "Q",
                "STREET": "921 Gessner Rd",
                "CITY": "Houston",
                "COUNTY": "Harris",
                "ADDRESS": "921 Gessner Rd",
                "ZIP": "77024",
                "LATITUDE": 29.7808159840205,
                "LONGITUDE": -95.544491864529,
                "PFIZER_AVAILABLE": 770,
                "MODERNA_AVAILABLE": 0,
                "VACCINES_AVAILABLE": 770,
                "Total_Shipped": 32925,
                "PublicPhone": "833-772-2864",
                "WEBSITE": "https://memorialhermann.org/covid19vaccine",
                "RemoveRecord": null,
                "LAST_UPDATE_VAC": "02/13/2021      ",
                "LAST_UPDATE_TIME_VAC": "07:33:27        ",
                "marker-symbol": "circle-15"
            }
        },
        {
            "type": "Feature",
            "geometry": {
                "type": "Point",
                "coordinates": [
                    -98.2040896910264,
                    26.2526528286993
                ]
            },
            "properties": {
                "OBJECTID": 1093,
                "NAME": "DHR HEALTH",
                "TYPE": "Vaccine Hub",
                "TSA": "V",
                "STREET": "5501 South Mccoll Road",
                "CITY": "Edinburg",
                "COUNTY": "Hidalgo",
                "ADDRESS": "5501 South Mccoll Road",
                "ZIP": "78539",
                "LATITUDE": 26.2526528286993,
                "LONGITUDE": -98.2040896910264,
                "PFIZER_AVAILABLE": 5420,
                "MODERNA_AVAILABLE": 0,
                "VACCINES_AVAILABLE": 5420,
                "Total_Shipped": 66425,
                "PublicPhone": "956-362-8800",
                "WEBSITE": "https://www.dhrhealth.com/patients-and-visitors/coronavirus-advisory",
                "RemoveRecord": null,
                "LAST_UPDATE_VAC": "02/10/2021      ",
                "LAST_UPDATE_TIME_VAC": "21:45:04        ",
                "marker-symbol": "circle-15"
            }
        },
        {
            "type": "Feature",
            "geometry": {
                "type": "Point",
                "coordinates": [
                    -94.73146,
                    32.501452
                ]
            },
            "properties": {
                "OBJECTID": 1105,
                "NAME": "CHRISTUS GOOD SHEPHERD - LONGVIEW",
                "TYPE": "Vaccine Hub",
                "TSA": "G",
                "STREET": "700 E Marshall Ave",
                "CITY": " Longview",
                "COUNTY": "Gregg",
                "ADDRESS": "700 E Marshall Ave, Longview, TX, 75601",
                "ZIP": "75601",
                "LATITUDE": 32.501452,
                "LONGITUDE": -94.73146,
                "PFIZER_AVAILABLE": 670,
                "MODERNA_AVAILABLE": 40,
                "VACCINES_AVAILABLE": 710,
                "Total_Shipped": 14550,
                "PublicPhone": "877-335-5746",
                "WEBSITE": "https://www.christushealth.org/vaccine",
                "RemoveRecord": null,
                "LAST_UPDATE_VAC": "02/12/2021      ",
                "LAST_UPDATE_TIME_VAC": "17:47:27        ",
                "marker-symbol": "circle-15"
            }
        },
        {
            "type": "Feature",
            "geometry": {
                "type": "Point",
                "coordinates": [
                    -97.3850633378074,
                    27.7493555507385
                ]
            },
            "properties": {
                "OBJECTID": 1117,
                "NAME": "DRISCOLL CHILDREN'S HOSPITAL",
                "TYPE": "Vaccine Hub",
                "TSA": "U",
                "STREET": "3533 S Alameda",
                "CITY": "Corpus Christi",
                "COUNTY": "Nueces",
                "ADDRESS": "3533 S Alameda",
                "ZIP": "78411",
                "LATITUDE": 27.7493555507385,
                "LONGITUDE": -97.3850633378074,
                "PFIZER_AVAILABLE": 0,
                "MODERNA_AVAILABLE": 0,
                "VACCINES_AVAILABLE": 0,
                "Total_Shipped": 8900,
                "PublicPhone": "(361) 694-5000",
                "WEBSITE": "http://www.driscollchildrens.org/",
                "RemoveRecord": null,
                "LAST_UPDATE_VAC": "02/13/2021      ",
                "LAST_UPDATE_TIME_VAC": "14:55:12        ",
                "marker-symbol": "circle-15"
            }
        },
        {
            "type": "Feature",
            "geometry": {
                "type": "Point",
                "coordinates": [
                    -97.7777672774548,
                    31.4333648872943
                ]
            },
            "properties": {
                "OBJECTID": 1124,
                "NAME": "CORYELL MEMORIAL HOSPITAL",
                "TYPE": "Vaccine Hub",
                "TSA": "L",
                "STREET": "1507 W Main St",
                "CITY": "Gatesville",
                "COUNTY": "Coryell",
                "ADDRESS": "1507 W Main St",
                "ZIP": "76528",
                "LATITUDE": 31.4333648872943,
                "LONGITUDE": -97.7777672774548,
                "PFIZER_AVAILABLE": 0,
                "MODERNA_AVAILABLE": 0,
                "VACCINES_AVAILABLE": 0,
                "Total_Shipped": 5875,
                "PublicPhone": "(254) 865-2166",
                "WEBSITE": "https://coryellhealth.org/clinics/",
                "RemoveRecord": null,
                "LAST_UPDATE_VAC": "02/12/2021      ",
                "LAST_UPDATE_TIME_VAC": "07:04:56        ",
                "marker-symbol": "circle-15"
            }
        },
        {
            "type": "Feature",
            "geometry": {
                "type": "Point",
                "coordinates": [
                    -96.7788960024616,
                    32.7894280025686
                ]
            },
            "properties": {
                "OBJECTID": 1139,
                "NAME": "BAYLOR UNIVERSITY MEDICAL CENTER",
                "TYPE": "Vaccine Hub",
                "TSA": "E",
                "STREET": "3500 Gaston Ave",
                "CITY": "Dallas",
                "COUNTY": "Dallas",
                "ADDRESS": "3500 Gaston Ave",
                "ZIP": "75246",
                "LATITUDE": 32.7894280025686,
                "LONGITUDE": -96.7788960024616,
                "PFIZER_AVAILABLE": 0,
                "MODERNA_AVAILABLE": 0,
                "VACCINES_AVAILABLE": 0,
                "Total_Shipped": 38175,
                "PublicPhone": "1-844-279-8222",
                "WEBSITE": "https://www.bswhealth.com/covidvaccine",
                "RemoveRecord": null,
                "LAST_UPDATE_VAC": "02/13/2021      ",
                "LAST_UPDATE_TIME_VAC": "10:40:30        ",
                "marker-symbol": "circle-15"
            }
        },
        {
            "type": "Feature",
            "geometry": {
                "type": "Point",
                "coordinates": [
                    -96.80492,
                    33.03505
                ]
            },
            "properties": {
                "OBJECTID": 1185,
                "NAME": "BAYLOR SCOTT WHITE MEDICAL CENTER OF PLANO",
                "TYPE": "Vaccine Hub",
                "TSA": "E",
                "STREET": "4700 Alliance Blvd",
                "CITY": "Plano",
                "COUNTY": "Collin",
                "ADDRESS": "4700 Alliance Blvd",
                "ZIP": "75093",
                "LATITUDE": 33.03505,
                "LONGITUDE": -96.80492,
                "PFIZER_AVAILABLE": 0,
                "MODERNA_AVAILABLE": 0,
                "VACCINES_AVAILABLE": 0,
                "Total_Shipped": 22100,
                "PublicPhone": "1-844-279-8222",
                "WEBSITE": "https://www.bswhealth.com/covid-vaccine",
                "RemoveRecord": null,
                "LAST_UPDATE_VAC": "02/13/2021      ",
                "LAST_UPDATE_TIME_VAC": "10:32:24        ",
                "marker-symbol": "circle-15"
            }
        },
        {
            "type": "Feature",
            "geometry": {
                "type": "Point",
                "coordinates": [
                    -102.728460537533,
                    34.2211138471444
                ]
            },
            "properties": {
                "OBJECTID": 1194,
                "NAME": "MULESHOE MEDICAL CENTER",
                "TYPE": "Vaccine Hub",
                "TSA": "B",
                "STREET": "708 S 1st St",
                "CITY": "Muleshoe",
                "COUNTY": "Bailey",
                "ADDRESS": "708 S 1st St",
                "ZIP": "79347",
                "LATITUDE": 34.2211138471444,
                "LONGITUDE": -102.728460537533,
                "PFIZER_AVAILABLE": 0,
                "MODERNA_AVAILABLE": 0,
                "VACCINES_AVAILABLE": 0,
                "Total_Shipped": 5075,
                "PublicPhone": "(806) 272-7544",
                "WEBSITE": "https://muleshoehospital.com",
                "RemoveRecord": null,
                "LAST_UPDATE_VAC": "02/13/2021      ",
                "LAST_UPDATE_TIME_VAC": "05:54:17        ",
                "marker-symbol": "circle-15"
            }
        },
        {
            "type": "Feature",
            "geometry": {
                "type": "Point",
                "coordinates": [
                    -102.60769,
                    36.090281
                ]
            },
            "properties": {
                "OBJECTID": 1202,
                "NAME": "COON MEMORIAL HOSPITAL",
                "TYPE": "Vaccine Hub",
                "TSA": "A",
                "STREET": "1411 Denver Ave",
                "CITY": "Dalhart",
                "COUNTY": "Dallam",
                "ADDRESS": "1411 Denver Ave, Dalhart, TX, 79022",
                "ZIP": "79022",
                "LATITUDE": 36.090281,
                "LONGITUDE": -102.60769,
                "PFIZER_AVAILABLE": 0,
                "MODERNA_AVAILABLE": 0,
                "VACCINES_AVAILABLE": 0,
                "Total_Shipped": 5475,
                "PublicPhone": "(806) 244-4571",
                "WEBSITE": "https://dhchd.org/services/hospital/",
                "RemoveRecord": null,
                "LAST_UPDATE_VAC": "02/12/2021      ",
                "LAST_UPDATE_TIME_VAC": "12:19:09        ",
                "marker-symbol": "circle-15"
            }
        },
        {
            "type": "Feature",
            "geometry": {
                "type": "Point",
                "coordinates": [
                    -95.4593472347869,
                    30.2049554559427
                ]
            },
            "properties": {
                "OBJECTID": 1215,
                "NAME": "CHI ST. LUKE'S THE WOODLANDS HOSPITAL",
                "TYPE": "Vaccine Hub",
                "TSA": "Q",
                "STREET": "17200 St Lukes Way",
                "CITY": "Conroe",
                "COUNTY": "Montgomery",
                "ADDRESS": "17200 St Lukes Way",
                "ZIP": "77384",
                "LATITUDE": 30.2049554559427,
                "LONGITUDE": -95.4593472347869,
                "PFIZER_AVAILABLE": 978,
                "MODERNA_AVAILABLE": 0,
                "VACCINES_AVAILABLE": 978,
                "Total_Shipped": 2000,
                "PublicPhone": "832-844-6352",
                "WEBSITE": "https://www.stlukeshealth.org/covidvaccine",
                "RemoveRecord": null,
                "LAST_UPDATE_VAC": "02/13/2021      ",
                "LAST_UPDATE_TIME_VAC": "00:30:08        ",
                "marker-symbol": "circle-15"
            }
        },
        {
            "type": "Feature",
            "geometry": {
                "type": "Point",
                "coordinates": [
                    -98.304243,
                    30.512841
                ]
            },
            "properties": {
                "OBJECTID": 1243,
                "NAME": "BAYLOR S&W HOSPITAL - MARBLE FALLS",
                "TYPE": "Vaccine Hub",
                "TSA": "O",
                "STREET": "810 Tx71w",
                "CITY": "Marble Falls",
                "COUNTY": "Burnet",
                "ADDRESS": "810 Tx71w",
                "ZIP": "78654",
                "LATITUDE": 30.512841,
                "LONGITUDE": -98.304243,
                "PFIZER_AVAILABLE": 0,
                "MODERNA_AVAILABLE": 0,
                "VACCINES_AVAILABLE": 0,
                "Total_Shipped": 4325,
                "PublicPhone": "844-279-8222",
                "WEBSITE": "https://www.bswhealth.com/covid-vaccine",
                "RemoveRecord": null,
                "LAST_UPDATE_VAC": "02/13/2021      ",
                "LAST_UPDATE_TIME_VAC": "10:28:07        ",
                "marker-symbol": "circle-15"
            }
        },
        {
            "type": "Feature",
            "geometry": {
                "type": "Point",
                "coordinates": [
                    -95.4593714576756,
                    30.2026862713771
                ]
            },
            "properties": {
                "OBJECTID": 1267,
                "NAME": "CHI ST LUKE'S HEALTH LAKESIDE HOSPITAL",
                "TYPE": "Vaccine Hub",
                "TSA": "Q",
                "STREET": "17400 St Lukes Way",
                "CITY": "Conroe",
                "COUNTY": "Montgomery",
                "ADDRESS": "17400 St Lukes Way",
                "ZIP": "77384",
                "LATITUDE": 30.2026862713771,
                "LONGITUDE": -95.4593714576756,
                "PFIZER_AVAILABLE": 0,
                "MODERNA_AVAILABLE": 0,
                "VACCINES_AVAILABLE": 0,
                "Total_Shipped": 1000,
                "PublicPhone": "(936) 266-9000",
                "WEBSITE": "https://www.stlukeshealth.org/locations/lakeside-hospital?utm_source=LocalSearch&utm_medium=Facility&utm_campaign=CHITexas&utm_term=CHIStLukesHealthLakesideHospital&y_source=1_MTUxNjI2MTktNzE1LWxvY2F0aW9uLndlYnNpdGU%3D",
                "RemoveRecord": null,
                "LAST_UPDATE_VAC": "02/13/2021      ",
                "LAST_UPDATE_TIME_VAC": "06:57:19        ",
                "marker-symbol": "circle-15"
            }
        },
        {
            "type": "Feature",
            "geometry": {
                "type": "Point",
                "coordinates": [
                    -96.8362900117144,
                    32.8109097155001
                ]
            },
            "properties": {
                "OBJECTID": 1275,
                "NAME": "UTSW - ZALE LIPSHY",
                "TYPE": "Vaccine Hub",
                "TSA": "E",
                "STREET": "5151 Harry Hines Blvd",
                "CITY": "Dallas",
                "COUNTY": "Dallas",
                "ADDRESS": "5151 Harry Hines Blvd",
                "ZIP": "75390",
                "LATITUDE": 32.8109097155001,
                "LONGITUDE": -96.8362900117144,
                "PFIZER_AVAILABLE": 0,
                "MODERNA_AVAILABLE": 0,
                "VACCINES_AVAILABLE": 0,
                "Total_Shipped": 106450,
                "PublicPhone": "214-633-2021",
                "WEBSITE": "https://utswmed.org/covid-19/covid-19-vaccination/",
                "RemoveRecord": null,
                "LAST_UPDATE_VAC": "02/09/2021      ",
                "LAST_UPDATE_TIME_VAC": "11:24:18        ",
                "marker-symbol": "circle-15"
            }
        },
        {
            "type": "Feature",
            "geometry": {
                "type": "Point",
                "coordinates": [
                    -106.43047,
                    31.768758
                ]
            },
            "properties": {
                "OBJECTID": 1287,
                "NAME": "UNIVERSITY MEDICAL CENTER OF EL PASO",
                "TYPE": "Vaccine Hub",
                "TSA": "I",
                "STREET": "4815 Alameda Ave",
                "CITY": "El Paso",
                "COUNTY": "El Paso",
                "ADDRESS": "4815 Alameda Ave, El Paso, TX, 79905",
                "ZIP": "79905",
                "LATITUDE": 31.768758,
                "LONGITUDE": -106.43047,
                "PFIZER_AVAILABLE": 0,
                "MODERNA_AVAILABLE": 0,
                "VACCINES_AVAILABLE": 0,
                "Total_Shipped": 51075,
                "PublicPhone": "915-975-8901",
                "WEBSITE": "http://umcelpaso.org",
                "RemoveRecord": null,
                "LAST_UPDATE_VAC": "02/12/2021      ",
                "LAST_UPDATE_TIME_VAC": "20:51:58        ",
                "marker-symbol": "circle-15"
            }
        },
        {
            "type": "Feature",
            "geometry": {
                "type": "Point",
                "coordinates": [
                    -96.8351078950032,
                    32.8143969796665
                ]
            },
            "properties": {
                "OBJECTID": 1320,
                "NAME": "PARKLAND MEMORIAL HOSPITAL",
                "TYPE": "Vaccine Hub",
                "TSA": "E",
                "STREET": "5223 Tex Oak Avenue",
                "CITY": "Dallas",
                "COUNTY": "Dallas",
                "ADDRESS": "5223 Tex Oak Avenue",
                "ZIP": "75235",
                "LATITUDE": 32.8143969796665,
                "LONGITUDE": -96.8351078950032,
                "PFIZER_AVAILABLE": 0,
                "MODERNA_AVAILABLE": 0,
                "VACCINES_AVAILABLE": 0,
                "Total_Shipped": 99200,
                "PublicPhone": "(214) 590-8000",
                "WEBSITE": "https://www.parklandhospital.com/",
                "RemoveRecord": null,
                "LAST_UPDATE_VAC": "02/13/2021      ",
                "LAST_UPDATE_TIME_VAC": "07:52:00        ",
                "marker-symbol": "circle-15"
            }
        },
        {
            "type": "Feature",
            "geometry": {
                "type": "Point",
                "coordinates": [
                    -95.4078596343324,
                    29.6931554841311
                ]
            },
            "properties": {
                "OBJECTID": 1349,
                "NAME": "Houston Health Department",
                "TYPE": "Vaccine Hub",
                "TSA": null,
                "STREET": "8000 N Stadium Dr",
                "CITY": "Houston",
                "COUNTY": "Harris",
                "ADDRESS": "8000 N Stadium Dr",
                "ZIP": "77054",
                "LATITUDE": 29.6931554841311,
                "LONGITUDE": -95.4078596343324,
                "PFIZER_AVAILABLE": 0,
                "MODERNA_AVAILABLE": 0,
                "VACCINES_AVAILABLE": 0,
                "Total_Shipped": 71400,
                "PublicPhone": "(832) 393-4220",
                "WEBSITE": "https://houstonemergency.org/covid19/",
                "RemoveRecord": null,
                "LAST_UPDATE_VAC": "02/13/2021      ",
                "LAST_UPDATE_TIME_VAC": "09:03:37        ",
                "marker-symbol": "circle-15"
            }
        },
        {
            "type": "Feature",
            "geometry": {
                "type": "Point",
                "coordinates": [
                    -97.3876399348432,
                    32.348150891414
                ]
            },
            "properties": {
                "OBJECTID": 1392,
                "NAME": "Cleburne Fire Department",
                "TYPE": "Vaccine Hub",
                "TSA": null,
                "STREET": "114 W Wardville Dr",
                "CITY": "Cleburne",
                "COUNTY": "Johnson",
                "ADDRESS": "114 W Wardville Dr",
                "ZIP": "76033",
                "LATITUDE": 32.348150891414,
                "LONGITUDE": -97.3876399348432,
                "PFIZER_AVAILABLE": 0,
                "MODERNA_AVAILABLE": 0,
                "VACCINES_AVAILABLE": 0,
                "Total_Shipped": 2000,
                "PublicPhone": "(817) 645-0964",
                "WEBSITE": null,
                "RemoveRecord": null,
                "LAST_UPDATE_VAC": "02/10/2021      ",
                "LAST_UPDATE_TIME_VAC": "08:04:31        ",
                "marker-symbol": "circle-15"
            }
        },
        {
            "type": "Feature",
            "geometry": {
                "type": "Point",
                "coordinates": [
                    -97.0006099143072,
                    28.8218362391096
                ]
            },
            "properties": {
                "OBJECTID": 1402,
                "NAME": "Victoria County Public Health Department",
                "TYPE": "Vaccine Hub",
                "TSA": null,
                "STREET": "2805 N Navarro",
                "CITY": "Victoria",
                "COUNTY": "Victoria",
                "ADDRESS": "2805 N Navarro",
                "ZIP": "77901",
                "LATITUDE": 28.8218362391096,
                "LONGITUDE": -97.0006099143072,
                "PFIZER_AVAILABLE": 0,
                "MODERNA_AVAILABLE": 200,
                "VACCINES_AVAILABLE": 200,
                "Total_Shipped": 6700,
                "PublicPhone": "361-578-6281",
                "WEBSITE": "https://www.vcphd.org/",
                "RemoveRecord": null,
                "LAST_UPDATE_VAC": "02/12/2021      ",
                "LAST_UPDATE_TIME_VAC": "08:08:45        ",
                "marker-symbol": "circle-15"
            }
        },
        {
            "type": "Feature",
            "geometry": {
                "type": "Point",
                "coordinates": [
                    -101.812117463821,
                    35.2247525869053
                ]
            },
            "properties": {
                "OBJECTID": 1455,
                "NAME": "Amarillo Public Health Department",
                "TYPE": "Vaccine Hub",
                "TSA": null,
                "STREET": "1000 Martin Rd",
                "CITY": "Amarillo",
                "COUNTY": "Potter",
                "ADDRESS": "1000 Martin Rd",
                "ZIP": "79107",
                "LATITUDE": 35.2247525869053,
                "LONGITUDE": -101.812117463821,
                "PFIZER_AVAILABLE": 0,
                "MODERNA_AVAILABLE": 4534,
                "VACCINES_AVAILABLE": 4534,
                "Total_Shipped": 58000,
                "PublicPhone": "806-378-6300",
                "WEBSITE": "http://www.amarilloalerts.com",
                "RemoveRecord": null,
                "LAST_UPDATE_VAC": "02/13/2021      ",
                "LAST_UPDATE_TIME_VAC": "09:17:14        ",
                "marker-symbol": "circle-15"
            }
        },
        {
            "type": "Feature",
            "geometry": {
                "type": "Point",
                "coordinates": [
                    -95.085492,
                    30.3419162
                ]
            },
            "properties": {
                "OBJECTID": 1478,
                "NAME": "Emergency Hospital Systems, LLC",
                "TYPE": "Vaccine Hub",
                "TSA": null,
                "STREET": null,
                "CITY": "Cleveland",
                "COUNTY": "Liberty",
                "ADDRESS": "300 E. Crockett Street",
                "ZIP": "77327",
                "LATITUDE": 30.3419162,
                "LONGITUDE": -95.085492,
                "PFIZER_AVAILABLE": 445,
                "MODERNA_AVAILABLE": 0,
                "VACCINES_AVAILABLE": 445,
                "Total_Shipped": 4875,
                "PublicPhone": "281-592-5410     281-592-5400",
                "WEBSITE": "www.emergencyhospitals.care",
                "RemoveRecord": null,
                "LAST_UPDATE_VAC": "02/11/2021      ",
                "LAST_UPDATE_TIME_VAC": "19:15:39        ",
                "marker-symbol": "circle-15"
            }
        },
        {
            "type": "Feature",
            "geometry": {
                "type": "Point",
                "coordinates": [
                    -96.6752143,
                    33.0991682
                ]
            },
            "properties": {
                "OBJECTID": 1538,
                "NAME": "Allen Fire Department",
                "TYPE": "Vaccine Hub",
                "TSA": null,
                "STREET": "310 Century Pkwy",
                "CITY": "Allen",
                "COUNTY": "Collin",
                "ADDRESS": "310 Century Parkway, Allen, TX, USA",
                "ZIP": "8048",
                "LATITUDE": 33.0991682,
                "LONGITUDE": -96.6752143,
                "PFIZER_AVAILABLE": 0,
                "MODERNA_AVAILABLE": 0,
                "VACCINES_AVAILABLE": 0,
                "Total_Shipped": 14800,
                "PublicPhone": "214-509-4333",
                "WEBSITE": "https://lp.constantcontactpages.com/su/hmnkPQ1/vaccine",
                "RemoveRecord": null,
                "LAST_UPDATE_VAC": "02/10/2021      ",
                "LAST_UPDATE_TIME_VAC": "07:45:17        ",
                "marker-symbol": "circle-15"
            }
        },
        {
            "type": "Feature",
            "geometry": {
                "type": "Point",
                "coordinates": [
                    -93.7595847,
                    30.8493828
                ]
            },
            "properties": {
                "OBJECTID": 1572,
                "NAME": "Jasper-Newton Co Public Health District",
                "TYPE": "Vaccine Hub",
                "TSA": null,
                "STREET": "210 High St",
                "CITY": "Newton",
                "COUNTY": "Newton",
                "ADDRESS": "210 High Street",
                "ZIP": "75966",
                "LATITUDE": 30.8493828,
                "LONGITUDE": -93.7595847,
                "PFIZER_AVAILABLE": 0,
                "MODERNA_AVAILABLE": 0,
                "VACCINES_AVAILABLE": 0,
                "Total_Shipped": 300,
                "PublicPhone": "409-384-6829",
                "WEBSITE": "http://www.jaspernewton.org",
                "RemoveRecord": null,
                "LAST_UPDATE_VAC": "02/12/2021      ",
                "LAST_UPDATE_TIME_VAC": "15:20:49        ",
                "marker-symbol": "circle-15"
            }
        },
        {
            "type": "Feature",
            "geometry": {
                "type": "Point",
                "coordinates": [
                    -95.40466,
                    29.704584
                ]
            },
            "properties": {
                "OBJECTID": 1583,
                "NAME": "HOUSTON METHODIST HOSPITAL",
                "TYPE": "Vaccine Hub",
                "TSA": "Q",
                "STREET": "6565 Fannin St",
                "CITY": "Houston",
                "COUNTY": "Harris",
                "ADDRESS": "6565 Fannin St, Houston, TX, 77030",
                "ZIP": "77030",
                "LATITUDE": 29.704584,
                "LONGITUDE": -95.40466,
                "PFIZER_AVAILABLE": 0,
                "MODERNA_AVAILABLE": 0,
                "VACCINES_AVAILABLE": 0,
                "Total_Shipped": 133100,
                "PublicPhone": "281-626-5551",
                "WEBSITE": "https://www.houstonmethodist.org/texas-vaccine-hub/",
                "RemoveRecord": null,
                "LAST_UPDATE_VAC": "02/13/2021      ",
                "LAST_UPDATE_TIME_VAC": "14:57:30        ",
                "marker-symbol": "circle-15"
            }
        },
        {
            "type": "Feature",
            "geometry": {
                "type": "Point",
                "coordinates": [
                    -94.092148,
                    30.0776871
                ]
            },
            "properties": {
                "OBJECTID": 1589,
                "NAME": "Jefferson County Immunization Clinic",
                "TYPE": "Vaccine Hub",
                "TSA": null,
                "STREET": "1295 Pearl St",
                "CITY": "Beaumont",
                "COUNTY": "Jefferson",
                "ADDRESS": "1295 Pearl Street, Beaumont, TX, USA",
                "ZIP": "77701",
                "LATITUDE": 30.0776871,
                "LONGITUDE": -94.092148,
                "PFIZER_AVAILABLE": 0,
                "MODERNA_AVAILABLE": 11000,
                "VACCINES_AVAILABLE": 11000,
                "Total_Shipped": 18800,
                "PublicPhone": "(409)835-8530",
                "WEBSITE": "\"https://co.jefferson.tx.us/PublicHealth/PublicHealth.htm \"",
                "RemoveRecord": null,
                "LAST_UPDATE_VAC": "02/12/2021      ",
                "LAST_UPDATE_TIME_VAC": "16:39:06        ",
                "marker-symbol": "circle-15"
            }
        },
        {
            "type": "Feature",
            "geometry": {
                "type": "Point",
                "coordinates": [
                    -97.13532914725,
                    31.5637280567765
                ]
            },
            "properties": {
                "OBJECTID": 1609,
                "NAME": "Waco-McLennan County Public Health District",
                "TYPE": "Vaccine Hub",
                "TSA": "M",
                "STREET": "225 W Waco Drive",
                "CITY": "Waco",
                "COUNTY": "McLennan",
                "ADDRESS": "225 W Waco Drive",
                "ZIP": "76707",
                "LATITUDE": 31.5637280567765,
                "LONGITUDE": -97.13532914725,
                "PFIZER_AVAILABLE": 0,
                "MODERNA_AVAILABLE": 1500,
                "VACCINES_AVAILABLE": 1500,
                "Total_Shipped": 9400,
                "PublicPhone": "(254) 750-1890",
                "WEBSITE": "https://www.COVIDWaco.com ",
                "RemoveRecord": null,
                "LAST_UPDATE_VAC": "02/13/2021      ",
                "LAST_UPDATE_TIME_VAC": "13:36:21        ",
                "marker-symbol": "circle-15"
            }
        },
        {
            "type": "Feature",
            "geometry": {
                "type": "Point",
                "coordinates": [
                    -95.0171310152007,
                    29.4042679944096
                ]
            },
            "properties": {
                "OBJECTID": 1644,
                "NAME": "Galveston County Health District",
                "TYPE": "Vaccine Hub",
                "TSA": null,
                "STREET": "9850 A Emmett F Lowry Expy",
                "CITY": "Texas City",
                "COUNTY": "Galveston",
                "ADDRESS": "9850 A Emmett F Lowry Expy",
                "ZIP": "77591",
                "LATITUDE": 29.4042679944096,
                "LONGITUDE": -95.0171310152007,
                "PFIZER_AVAILABLE": 0,
                "MODERNA_AVAILABLE": 1040,
                "VACCINES_AVAILABLE": 1040,
                "Total_Shipped": 5200,
                "PublicPhone": "409-227-8934",
                "WEBSITE": "http://www.gchd.org",
                "RemoveRecord": null,
                "LAST_UPDATE_VAC": "02/13/2021      ",
                "LAST_UPDATE_TIME_VAC": "07:57:11        ",
                "marker-symbol": "circle-15"
            }
        },
        {
            "type": "Feature",
            "geometry": {
                "type": "Point",
                "coordinates": [
                    -98.551282944107,
                    29.4928487820863
                ]
            },
            "properties": {
                "OBJECTID": 1646,
                "NAME": "University Health System (San Antonio)",
                "TYPE": "Vaccine Hub",
                "TSA": "P",
                "STREET": "4522 Fredericksburg Rd",
                "CITY": "San Antonio",
                "COUNTY": "Bexar",
                "ADDRESS": "4522 Fredericksburg Rd",
                "ZIP": "78201",
                "LATITUDE": 29.4928487820863,
                "LONGITUDE": -98.551282944107,
                "PFIZER_AVAILABLE": 0,
                "MODERNA_AVAILABLE": 0,
                "VACCINES_AVAILABLE": 0,
                "Total_Shipped": 107975,
                "PublicPhone": "210-644-1960",
                "WEBSITE": "https://www.universityhealthsystem.com/coronavirus-covid19/vaccine?utm_source=corpcomm&utm_medium=web&utm_campaign=wecandoitsa_typed&utm_content=typed_URL",
                "RemoveRecord": null,
                "LAST_UPDATE_VAC": "02/13/2021      ",
                "LAST_UPDATE_TIME_VAC": "08:21:56        ",
                "marker-symbol": "circle-15"
            }
        },
        {
            "type": "Feature",
            "geometry": {
                "type": "Point",
                "coordinates": [
                    -97.8474849731882,
                    27.515847504845
                ]
            },
            "properties": {
                "OBJECTID": 1677,
                "NAME": "Kleberg County Sheriff's Office",
                "TYPE": "Vaccine Hub",
                "TSA": null,
                "STREET": "1500 East King Avenue",
                "CITY": "Kingsville",
                "COUNTY": "Kleberg",
                "ADDRESS": "1500 East King",
                "ZIP": "78363",
                "LATITUDE": 27.515847504845,
                "LONGITUDE": -97.8474849731882,
                "PFIZER_AVAILABLE": 0,
                "MODERNA_AVAILABLE": 0,
                "VACCINES_AVAILABLE": 0,
                "Total_Shipped": 4000,
                "PublicPhone": "361-595-8500",
                "WEBSITE": "https://www.klebergcoso.org/",
                "RemoveRecord": null,
                "LAST_UPDATE_VAC": "02/12/2021      ",
                "LAST_UPDATE_TIME_VAC": "06:57:55        ",
                "marker-symbol": "circle-15"
            }
        },
        {
            "type": "Feature",
            "geometry": {
                "type": "Point",
                "coordinates": [
                    -106.366468331105,
                    31.815323705748
                ]
            },
            "properties": {
                "OBJECTID": 1737,
                "NAME": "City of El Paso Fire Department",
                "TYPE": "Vaccine Hub",
                "TSA": null,
                "STREET": "301 George Perry",
                "CITY": "El Paso",
                "COUNTY": "El Paso",
                "ADDRESS": "George Perry Site",
                "ZIP": "79925",
                "LATITUDE": 31.815323705748,
                "LONGITUDE": -106.366468331105,
                "PFIZER_AVAILABLE": 0,
                "MODERNA_AVAILABLE": 0,
                "VACCINES_AVAILABLE": 0,
                "Total_Shipped": 33000,
                "PublicPhone": "915-212-6843",
                "WEBSITE": "https://elpasotx.seamlessdocs.com/f/COVID19VaccinePriorityGroupRegistration",
                "RemoveRecord": null,
                "LAST_UPDATE_VAC": "02/13/2021      ",
                "LAST_UPDATE_TIME_VAC": "08:36:31        ",
                "marker-symbol": "circle-15"
            }
        },
        {
            "type": "Feature",
            "geometry": {
                "type": "Point",
                "coordinates": [
                    -100.47930810179,
                    28.6901769940361
                ]
            },
            "properties": {
                "OBJECTID": 1766,
                "NAME": "Eagle Pass Fire Department",
                "TYPE": "Vaccine Hub",
                "TSA": null,
                "STREET": "2558 EL INDIO HWY",
                "CITY": "EAGLE PASS",
                "COUNTY": "Maverick",
                "ADDRESS": "2558 EL INDIO HWY",
                "ZIP": "78852",
                "LATITUDE": 28.6901769940361,
                "LONGITUDE": -100.47930810179,
                "PFIZER_AVAILABLE": 0,
                "MODERNA_AVAILABLE": 0,
                "VACCINES_AVAILABLE": 0,
                "Total_Shipped": 3600,
                "PublicPhone": "830-421-5151; 830-421-5122",
                "WEBSITE": "https://www.eaglepasstx.us/formcenter/covid19-7/covid19-vaccine-priority-groups-registra-52",
                "RemoveRecord": null,
                "LAST_UPDATE_VAC": "02/12/2021      ",
                "LAST_UPDATE_TIME_VAC": "09:44:01        ",
                "marker-symbol": "circle-15"
            }
        },
        {
            "type": "Feature",
            "geometry": {
                "type": "Point",
                "coordinates": [
                    -95.7799906543363,
                    29.5652494437827
                ]
            },
            "properties": {
                "OBJECTID": 1783,
                "NAME": "Fort Bend County Health Department",
                "TYPE": "Vaccine Hub",
                "TSA": null,
                "STREET": "4520 Reading Rd",
                "CITY": "Rosenberg",
                "COUNTY": "Fort Bend",
                "ADDRESS": "4520 Reading Rd",
                "ZIP": "77471",
                "LATITUDE": 29.5652494437827,
                "LONGITUDE": -95.7799906543363,
                "PFIZER_AVAILABLE": 2387,
                "MODERNA_AVAILABLE": 0,
                "VACCINES_AVAILABLE": 2387,
                "Total_Shipped": 37300,
                "PublicPhone": "832-471-1373",
                "WEBSITE": "https://fort-bend-covid-19-response-fbc-hhs.hub.arcgis.com/",
                "RemoveRecord": null,
                "LAST_UPDATE_VAC": "02/13/2021      ",
                "LAST_UPDATE_TIME_VAC": "09:10:52        ",
                "marker-symbol": "circle-15"
            }
        },
        {
            "type": "Feature",
            "geometry": {
                "type": "Point",
                "coordinates": [
                    -98.4788357594488,
                    29.4170301098461
                ]
            },
            "properties": {
                "OBJECTID": 1825,
                "NAME": "San Antonio Metro Health District",
                "TYPE": "Vaccine Hub",
                "TSA": null,
                "STREET": "100 Montana St",
                "CITY": "San Antonio",
                "COUNTY": "Bexar",
                "ADDRESS": "100 Montana St",
                "ZIP": "78203",
                "LATITUDE": 29.4170301098461,
                "LONGITUDE": -98.4788357594488,
                "PFIZER_AVAILABLE": 0,
                "MODERNA_AVAILABLE": 0,
                "VACCINES_AVAILABLE": 0,
                "Total_Shipped": 200,
                "PublicPhone": "210-207-6000 Option 8",
                "WEBSITE": "https://covid19.sanantonio.gov/vaccine",
                "RemoveRecord": null,
                "LAST_UPDATE_VAC": "01/26/2021      ",
                "LAST_UPDATE_TIME_VAC": "07:24:55        ",
                "marker-symbol": "circle-15"
            }
        },
        {
            "type": "Feature",
            "geometry": {
                "type": "Point",
                "coordinates": [
                    -96.4213413,
                    30.1566503
                ]
            },
            "properties": {
                "OBJECTID": 1838,
                "NAME": "Washington County EMS",
                "TYPE": "Vaccine Hub",
                "TSA": null,
                "STREET": "1875 HWY 290 West",
                "CITY": "Brenham",
                "COUNTY": "Washington",
                "ADDRESS": "1875 HWY 290 West ",
                "ZIP": "77833",
                "LATITUDE": 30.1566503,
                "LONGITUDE": -96.4213413,
                "PFIZER_AVAILABLE": 0,
                "MODERNA_AVAILABLE": 0,
                "VACCINES_AVAILABLE": 0,
                "Total_Shipped": 11000,
                "PublicPhone": null,
                "WEBSITE": "https://localevent.info/",
                "RemoveRecord": null,
                "LAST_UPDATE_VAC": "02/12/2021      ",
                "LAST_UPDATE_TIME_VAC": "17:29:05        ",
                "marker-symbol": "circle-15"
            }
        },
        {
            "type": "Feature",
            "geometry": {
                "type": "Point",
                "coordinates": [
                    -96.6281891053061,
                    32.9070227945808
                ]
            },
            "properties": {
                "OBJECTID": 1856,
                "NAME": "Lhd Garland Health Dept.",
                "TYPE": "Vaccine Hub",
                "TSA": null,
                "STREET": "206 Carver Dr",
                "CITY": "Garland",
                "COUNTY": "Dallas",
                "ADDRESS": "206 Carver Dr",
                "ZIP": "75040",
                "LATITUDE": 32.9070227945808,
                "LONGITUDE": -96.6281891053061,
                "PFIZER_AVAILABLE": 0,
                "MODERNA_AVAILABLE": 0,
                "VACCINES_AVAILABLE": 0,
                "Total_Shipped": 6000,
                "PublicPhone": "972-205-3900",
                "WEBSITE": "http://garlandtx.gov/",
                "RemoveRecord": null,
                "LAST_UPDATE_VAC": "02/13/2021      ",
                "LAST_UPDATE_TIME_VAC": "07:56:08        ",
                "marker-symbol": "circle-15"
            }
        },
        {
            "type": "Feature",
            "geometry": {
                "type": "Point",
                "coordinates": [
                    -97.7847971857341,
                    32.7472989091189
                ]
            },
            "properties": {
                "OBJECTID": 1897,
                "NAME": "Parker County Hospital District",
                "TYPE": "Vaccine Hub",
                "TSA": null,
                "STREET": "1130 Pecan Dr",
                "CITY": "Weatherford",
                "COUNTY": "Parker",
                "ADDRESS": "1130 Pecan Dr",
                "ZIP": "76086",
                "LATITUDE": 32.7472989091189,
                "LONGITUDE": -97.7847971857341,
                "PFIZER_AVAILABLE": 1107,
                "MODERNA_AVAILABLE": 0,
                "VACCINES_AVAILABLE": 1107,
                "Total_Shipped": 10550,
                "PublicPhone": "(817) 341-2520",
                "WEBSITE": "http://www.pchdtx.org/",
                "RemoveRecord": null,
                "LAST_UPDATE_VAC": "02/13/2021      ",
                "LAST_UPDATE_TIME_VAC": "07:31:10        ",
                "marker-symbol": "circle-15"
            }
        },
        {
            "type": "Feature",
            "geometry": {
                "type": "Point",
                "coordinates": [
                    -96.7985150203102,
                    32.7747699817525
                ]
            },
            "properties": {
                "OBJECTID": 1918,
                "NAME": "City Of Dallas",
                "TYPE": "Vaccine Hub",
                "TSA": null,
                "STREET": "650 S Griffin Street",
                "CITY": "Dallas",
                "COUNTY": "Dallas",
                "ADDRESS": "650 S Griffin Street",
                "ZIP": "75202",
                "LATITUDE": 32.7747699817525,
                "LONGITUDE": -96.7985150203102,
                "PFIZER_AVAILABLE": 0,
                "MODERNA_AVAILABLE": 5000,
                "VACCINES_AVAILABLE": 5000,
                "Total_Shipped": 18875,
                "PublicPhone": "214-670-3111",
                "WEBSITE": "https://dallascityhall.com/Pages/Coronavirus-Vaccine-Information.aspx",
                "RemoveRecord": null,
                "LAST_UPDATE_VAC": "02/13/2021      ",
                "LAST_UPDATE_TIME_VAC": "13:07:38        ",
                "marker-symbol": "circle-15"
            }
        },
        {
            "type": "Feature",
            "geometry": {
                "type": "Point",
                "coordinates": [
                    -103.515152416359,
                    31.4005458988051
                ]
            },
            "properties": {
                "OBJECTID": 2092,
                "NAME": "Pecos Valley Rural Health Clinic",
                "TYPE": "Vaccine Hub",
                "TSA": null,
                "STREET": "2335 S Pigman St",
                "CITY": "Pecos",
                "COUNTY": "Reeves",
                "ADDRESS": "2335 S Pigman St",
                "ZIP": "79772",
                "LATITUDE": 31.4005458988051,
                "LONGITUDE": -103.515152416359,
                "PFIZER_AVAILABLE": 0,
                "MODERNA_AVAILABLE": 0,
                "VACCINES_AVAILABLE": 0,
                "Total_Shipped": 5675,
                "PublicPhone": "432-447-7920",
                "WEBSITE": "https://www.reevescountyhospital.com",
                "RemoveRecord": null,
                "LAST_UPDATE_VAC": "02/13/2021      ",
                "LAST_UPDATE_TIME_VAC": "07:53:24        ",
                "marker-symbol": "circle-15"
            }
        },
        {
            "type": "Feature",
            "geometry": {
                "type": "Point",
                "coordinates": [
                    -96.8354374859871,
                    32.8037492526019
                ]
            },
            "properties": {
                "OBJECTID": 2093,
                "NAME": "Dallas County Health and Human Services",
                "TYPE": "Vaccine Hub",
                "TSA": null,
                "STREET": "2377 N Stemmons Fwy",
                "CITY": "Dallas",
                "COUNTY": "Dallas",
                "ADDRESS": "2377 N Stemmons Fwy",
                "ZIP": "75207",
                "LATITUDE": 32.8037492526019,
                "LONGITUDE": -96.8354374859871,
                "PFIZER_AVAILABLE": 0,
                "MODERNA_AVAILABLE": 0,
                "VACCINES_AVAILABLE": 0,
                "Total_Shipped": 55800,
                "PublicPhone": "469-749-9900",
                "WEBSITE": "https://www.dallascounty.org/covid-19/covid-19-vaccination.php",
                "RemoveRecord": null,
                "LAST_UPDATE_VAC": "02/13/2021      ",
                "LAST_UPDATE_TIME_VAC": "07:51:51        ",
                "marker-symbol": "circle-15"
            }
        },
        {
            "type": "Feature",
            "geometry": {
                "type": "Point",
                "coordinates": [
                    -96.6382383755623,
                    33.2231333916502
                ]
            },
            "properties": {
                "OBJECTID": 2094,
                "NAME": "City Of McKinney Fire Department",
                "TYPE": "Vaccine Hub",
                "TSA": null,
                "STREET": "2200 Taylor Burk Dr",
                "CITY": "Mckinney",
                "COUNTY": "Collin",
                "ADDRESS": "2200 Taylor Burk Dr",
                "ZIP": "75071",
                "LATITUDE": 33.2231333916502,
                "LONGITUDE": -96.6382383755623,
                "PFIZER_AVAILABLE": 108,
                "MODERNA_AVAILABLE": 0,
                "VACCINES_AVAILABLE": 108,
                "Total_Shipped": 15400,
                "PublicPhone": "972-547-9000",
                "WEBSITE": "https://www.mckinneytexas.org/2256/Coronavirus-COVID-19",
                "RemoveRecord": null,
                "LAST_UPDATE_VAC": "02/12/2021      ",
                "LAST_UPDATE_TIME_VAC": "20:06:00        ",
                "marker-symbol": "circle-15"
            }
        },
        {
            "type": "Feature",
            "geometry": {
                "type": "Point",
                "coordinates": [
                    -95.4569182430658,
                    29.744195700504
                ]
            },
            "properties": {
                "OBJECTID": 2129,
                "NAME": "Harris County Public Health",
                "TYPE": "Vaccine Hub",
                "TSA": null,
                "STREET": "2223 W Loop S",
                "CITY": "Houston",
                "COUNTY": "Harris",
                "ADDRESS": "2223 W Loop South",
                "ZIP": "77027",
                "LATITUDE": 29.744195700504,
                "LONGITUDE": -95.4569182430658,
                "PFIZER_AVAILABLE": 0,
                "MODERNA_AVAILABLE": 0,
                "VACCINES_AVAILABLE": 0,
                "Total_Shipped": 67000,
                "PublicPhone": "832-927-8787",
                "WEBSITE": "https://vacstrac.hctx.net",
                "RemoveRecord": null,
                "LAST_UPDATE_VAC": "02/13/2021      ",
                "LAST_UPDATE_TIME_VAC": "10:01:14        ",
                "marker-symbol": "circle-15"
            }
        },
        {
            "type": "Feature",
            "geometry": {
                "type": "Point",
                "coordinates": [
                    -97.1148560089594,
                    32.73910246917
                ]
            },
            "properties": {
                "OBJECTID": 2321,
                "NAME": "Arlington Fire Department",
                "TYPE": "Vaccine Hub",
                "TSA": null,
                "STREET": "620 W Division St",
                "CITY": "Arlington",
                "COUNTY": "Tarrant",
                "ADDRESS": "620 W Division St",
                "ZIP": "76011",
                "LATITUDE": 32.73910246917,
                "LONGITUDE": -97.1148560089594,
                "PFIZER_AVAILABLE": 0,
                "MODERNA_AVAILABLE": 2230,
                "VACCINES_AVAILABLE": 2230,
                "Total_Shipped": 40000,
                "PublicPhone": "817-248-6299 Option 7",
                "WEBSITE": "www.tarrantcounty.com/COVIDshot",
                "RemoveRecord": null,
                "LAST_UPDATE_VAC": "02/13/2021      ",
                "LAST_UPDATE_TIME_VAC": "09:21:38        ",
                "marker-symbol": "circle-15"
            }
        }
    ]
}