{"type": "FeatureCollection", "features": [{"type": "Feature", "geometry": {"type": "Point", "coordinates": [-96.6772193, 33.1150722]}, "properties": {"OBJECTID": 5, "NAME": "Fresenius Kidney Care of Allen", "TYPE": "Other", "TSA": null, "STREET": "925 W Exchange Pkwy", "CITY": "Allen", "COUNTY": "Collin", "ADDRESS": "925 West Exchange Parkway, Allen, TX, USA", "ZIP": "75013", "LATITUDE": 33.1150722, "LONGITUDE": -96.6772193, "PFIZER_AVAILABLE": 0, "MODERNA_AVAILABLE": 60, "VACCINES_AVAILABLE": 60, "Total_Shipped": 100, "PublicPhone": null, "WEBSITE": null, "RemoveRecord": null, "LAST_UPDATE_VAC": "02/25/2021      ", "LAST_UPDATE_TIME_VAC": "09:00:46        ", "marker-symbol": "circle-15", "marker-color": "#228B22"}}, {"type": "Feature", "geometry": {"type": "Point", "coordinates": [-96.9052969, 33.6682641]}, "properties": {"OBJECTID": 6, "NAME": "Axtells Rite-Value Pharmacy Inc.", "TYPE": "Pharmacy", "TSA": null, "STREET": "304 1 2 Charlie St", "CITY": "Whitesboro", "COUNTY": "Texas", "ADDRESS": "304 1/2 Charlie St", "ZIP": "76273", "LATITUDE": 33.6682641, "LONGITUDE": -96.9052969, "PFIZER_AVAILABLE": 0, "MODERNA_AVAILABLE": 48, "VACCINES_AVAILABLE": 48, "Total_Shipped": 100, "PublicPhone": "9035643216", "WEBSITE": null, "RemoveRecord": null, "LAST_UPDATE_VAC": "02/25/2021      ", "LAST_UPDATE_TIME_VAC": "19:00:56        ", "marker-symbol": "circle-15", "marker-color": "#228B22"}}, {"type": "Feature", "geometry": {"type": "Point", "coordinates": [-95.3820133, 30.1183759]}, "properties": {"OBJECTID": 8, "NAME": "Kroger Pharmacy 137", "TYPE": "Pharmacy", "TSA": null, "STREET": "Riley Fuzzel Rd", "CITY": "Spring", "COUNTY": "montgomery", "ADDRESS": "3731 Riley Fuzzel Rd", "ZIP": "77386", "LATITUDE": 30.1183759, "LONGITUDE": -95.3820133, "PFIZER_AVAILABLE": 0, "MODERNA_AVAILABLE": 190, "VACCINES_AVAILABLE": 190, "Total_Shipped": 200, "PublicPhone": "(281)-602-0283", "WEBSITE": "HO00137Pharmacy@stores.kroger.com", "RemoveRecord": null, "LAST_UPDATE_VAC": "02/24/2021      ", "LAST_UPDATE_TIME_VAC": "19:26:03        ", "marker-symbol": "circle-15", "marker-color": "#228B22"}}, {"type": "Feature", "geometry": {"type": "Point", "coordinates": [-104.366889245128, 29.5753444319771]}, "properties": {"OBJECTID": 74, "NAME": "Presidio County Medical Clinic", "TYPE": "Community Clinic", "TSA": null, "STREET": "1501 N Erma", "CITY": "Presidio", "COUNTY": "Presidio", "ADDRESS": "1501 N Erma", "ZIP": "79845", "LATITUDE": 29.5753444319771, "LONGITUDE": -104.366889245128, "PFIZER_AVAILABLE": 0, "MODERNA_AVAILABLE": 100, "VACCINES_AVAILABLE": 100, "Total_Shipped": 400, "PublicPhone": "(432) 229-3030", "WEBSITE": "http://www.pchsmedclinic.org/", "RemoveRecord": null, "LAST_UPDATE_VAC": "02/24/2021      ", "LAST_UPDATE_TIME_VAC": "10:28:43        ", "marker-symbol": "circle-15", "marker-color": "#228B22"}}, {"type": "Feature", "geometry": {"type": "Point", "coordinates": [-94.9835162, 29.7613868]}, "properties": {"OBJECTID": 78, "NAME": "Biomedical Applications of Texas/Fresenius Medical Care Baytown Dialysis", "TYPE": "Other", "TSA": null, "STREET": "Rollingbrook", "CITY": "Baytown", "COUNTY": "Texas", "ADDRESS": "2202 Rollingbrook", "ZIP": "77521", "LATITUDE": 29.7613868, "LONGITUDE": -94.9835162, "PFIZER_AVAILABLE": 0, "MODERNA_AVAILABLE": 70, "VACCINES_AVAILABLE": 70, "Total_Shipped": 100, "PublicPhone": "(281) 422-3794", "WEBSITE": null, "RemoveRecord": null, "LAST_UPDATE_VAC": "02/25/2021      ", "LAST_UPDATE_TIME_VAC": "08:51:49        ", "marker-symbol": "circle-15", "marker-color": "#228B22"}}, {"type": "Feature", "geometry": {"type": "Point", "coordinates": [-95.5854, 29.92499]}, "properties": {"OBJECTID": 79, "NAME": "Fresenius Medical Care Cypress Fairbank", "TYPE": "Other", "TSA": null, "STREET": "10505 Jones Road", "CITY": "Houston", "COUNTY": "Harris", "ADDRESS": "10505 Jones Road", "ZIP": "77065", "LATITUDE": 29.92499, "LONGITUDE": -95.5854, "PFIZER_AVAILABLE": 0, "MODERNA_AVAILABLE": 100, "VACCINES_AVAILABLE": 100, "Total_Shipped": 100, "PublicPhone": null, "WEBSITE": null, "RemoveRecord": null, "LAST_UPDATE_VAC": "02/25/2021      ", "LAST_UPDATE_TIME_VAC": "17:02:24        ", "marker-symbol": "circle-15", "marker-color": "#228B22"}}, {"type": "Feature", "geometry": {"type": "Point", "coordinates": [-96.831957, 33.043741]}, "properties": {"OBJECTID": 82, "NAME": "North Texas Hospital Physicians Group", "TYPE": "Other", "TSA": null, "STREET": null, "CITY": "Plano ", "COUNTY": "Collin", "ADDRESS": "6020 W PARKER RD STE 420", "ZIP": "75093", "LATITUDE": null, "LONGITUDE": null, "PFIZER_AVAILABLE": 0, "MODERNA_AVAILABLE": 50, "VACCINES_AVAILABLE": 50, "Total_Shipped": 200, "PublicPhone": "(972) 244-1300 ext1390", "WEBSITE": "bgwarren@texasmed.com", "RemoveRecord": null, "LAST_UPDATE_VAC": "02/25/2021      ", "LAST_UPDATE_TIME_VAC": "16:52:55        ", "marker-symbol": "circle-15", "marker-color": "#228B22"}}, {"type": "Feature", "geometry": {"type": "Point", "coordinates": [-95.1235160663982, 29.6848316396492]}, "properties": {"OBJECTID": 93, "NAME": "Deer Park Family Clinic Pa", "TYPE": "Medical Practice", "TSA": null, "STREET": "2910 Center St", "CITY": "Deer Park", "COUNTY": "Harris", "ADDRESS": "2910 Center St", "ZIP": "77536", "LATITUDE": 29.6848316396492, "LONGITUDE": -95.1235160663982, "PFIZER_AVAILABLE": 0, "MODERNA_AVAILABLE": 40, "VACCINES_AVAILABLE": 40, "Total_Shipped": 500, "PublicPhone": "(281) 479-5941", "WEBSITE": "http://dpfc.org/", "RemoveRecord": null, "LAST_UPDATE_VAC": "02/25/2021      ", "LAST_UPDATE_TIME_VAC": "08:40:37        ", "marker-symbol": "circle-15", "marker-color": "#228B22"}}, {"type": "Feature", "geometry": {"type": "Point", "coordinates": [-102.4068, 34.82121]}, "properties": {"OBJECTID": 103, "NAME": "Regence Health Network Inc Hereford", "TYPE": "Other", "TSA": null, "STREET": "125 W Park Ave", "CITY": "Hereford", "COUNTY": "Deaf Smith", "ADDRESS": "125 W Park Ave", "ZIP": "79045", "LATITUDE": 34.82121, "LONGITUDE": -102.4068, "PFIZER_AVAILABLE": 0, "MODERNA_AVAILABLE": 100, "VACCINES_AVAILABLE": 100, "Total_Shipped": 100, "PublicPhone": null, "WEBSITE": null, "RemoveRecord": null, "LAST_UPDATE_VAC": "02/25/2021      ", "LAST_UPDATE_TIME_VAC": "14:56:36        ", "marker-symbol": "circle-15", "marker-color": "#228B22"}}, {"type": "Feature", "geometry": {"type": "Point", "coordinates": [-97.326396, 32.727343]}, "properties": {"OBJECTID": 120, "NAME": "JPS MAIN", "TYPE": "Hospital", "TSA": "E", "STREET": "1575 S Main St", "CITY": " Fort Worth", "COUNTY": "Tarrant", "ADDRESS": "1575 S Main St, Fort Worth, TX, 76104", "ZIP": "76104", "LATITUDE": 32.727343, "LONGITUDE": -97.326396, "PFIZER_AVAILABLE": 6562, "MODERNA_AVAILABLE": 690, "VACCINES_AVAILABLE": 7252, "Total_Shipped": 54550, "PublicPhone": "817-702-3431", "WEBSITE": null, "RemoveRecord": null, "LAST_UPDATE_VAC": "02/25/2021      ", "LAST_UPDATE_TIME_VAC": "00:00:00        ", "marker-symbol": "circle-15", "marker-color": "#228B22"}}, {"type": "Feature", "geometry": {"type": "Point", "coordinates": [-95.8187256868673, 29.7707067745606]}, "properties": {"OBJECTID": 127, "NAME": "Striker Pharmacy LLC", "TYPE": "Pharmacy", "TSA": null, "STREET": "1330 Pin Oak Rd", "CITY": "Katy", "COUNTY": "Fort Bend", "ADDRESS": "1330 Pin Oak Rd", "ZIP": "77494", "LATITUDE": 29.7707067745606, "LONGITUDE": -95.8187256868673, "PFIZER_AVAILABLE": 0, "MODERNA_AVAILABLE": 80, "VACCINES_AVAILABLE": 80, "Total_Shipped": 100, "PublicPhone": "+18324378624", "WEBSITE": "http://www.strikerrx.com/", "RemoveRecord": null, "LAST_UPDATE_VAC": "02/25/2021      ", "LAST_UPDATE_TIME_VAC": "12:54:08        ", "marker-symbol": "circle-15", "marker-color": "#228B22"}}, {"type": "Feature", "geometry": {"type": "Point", "coordinates": [-102.19598, 31.156902]}, "properties": {"OBJECTID": 128, "NAME": "MCCAMEY COUNTY HOSPITAL DISTRICT", "TYPE": "Hospital", "TSA": "J", "STREET": "2500 S Highway 305", "CITY": "Mccamey", "COUNTY": "Upton", "ADDRESS": "2500 S Hwy 305,  McCAMEY, TX, 79752", "ZIP": "79752", "LATITUDE": 31.156902, "LONGITUDE": -102.19598, "PFIZER_AVAILABLE": 0, "MODERNA_AVAILABLE": 100, "VACCINES_AVAILABLE": 100, "Total_Shipped": 300, "PublicPhone": "(432) 652-4030", "WEBSITE": "http://www.mccameyhospital.org/getpage.php?name=contact", "RemoveRecord": null, "LAST_UPDATE_VAC": "02/25/2021      ", "LAST_UPDATE_TIME_VAC": "07:34:41        ", "marker-symbol": "circle-15", "marker-color": "#228B22"}}, {"type": "Feature", "geometry": {"type": "Point", "coordinates": [-105.849109938386, 31.2949658138598]}, "properties": {"OBJECTID": 133, "NAME": "Project Vida Health Center", "TYPE": "Other", "TSA": null, "STREET": "561 S Knox", "CITY": "Fort Hancock", "COUNTY": "Hudspeth", "ADDRESS": "561 S Knox", "ZIP": "79839", "LATITUDE": 31.2949658138598, "LONGITUDE": -105.849109938386, "PFIZER_AVAILABLE": 0, "MODERNA_AVAILABLE": 100, "VACCINES_AVAILABLE": 100, "Total_Shipped": 300, "PublicPhone": "915-769-1079", "WEBSITE": null, "RemoveRecord": null, "LAST_UPDATE_VAC": "02/25/2021      ", "LAST_UPDATE_TIME_VAC": "11:43:59        ", "marker-symbol": "circle-15", "marker-color": "#228B22"}}, {"type": "Feature", "geometry": {"type": "Point", "coordinates": [-95.3688315, 28.9677583]}, "properties": {"OBJECTID": 157, "NAME": "Stephen F Austin Community Health Center Inc", "TYPE": "Pharmacy", "TSA": "R", "STREET": "905 N. Gulf Blvd, 100", "CITY": "Freeport", "COUNTY": "Brazoria", "ADDRESS": "905 N. Gulf Blvd, 100", "ZIP": "77541", "LATITUDE": 28.9677583, "LONGITUDE": -95.3688315, "PFIZER_AVAILABLE": 0, "MODERNA_AVAILABLE": 1000, "VACCINES_AVAILABLE": 1000, "Total_Shipped": 3000, "PublicPhone": "281-824-1470", "WEBSITE": null, "RemoveRecord": null, "LAST_UPDATE_VAC": "02/23/2021      ", "LAST_UPDATE_TIME_VAC": "20:48:26        ", "marker-symbol": "circle-15", "marker-color": "#228B22"}}, {"type": "Feature", "geometry": {"type": "Point", "coordinates": [-95.7624621, 29.5786836]}, "properties": {"OBJECTID": 160, "NAME": "Fort Bend Family Health Center Access Health Center - Richmond", "TYPE": "Community Clinic", "TSA": "Q", "STREET": "400 Austin St", "CITY": "Richmond", "COUNTY": "Fort Bend", "ADDRESS": "400 Austin St, Richmond, TX 77469", "ZIP": "77469", "LATITUDE": 29.5786836, "LONGITUDE": -95.7624621, "PFIZER_AVAILABLE": 0, "MODERNA_AVAILABLE": 200, "VACCINES_AVAILABLE": 200, "Total_Shipped": 300, "PublicPhone": "281-342-4530", "WEBSITE": " https://www.myaccesshealth.org", "RemoveRecord": null, "LAST_UPDATE_VAC": "02/25/2021      ", "LAST_UPDATE_TIME_VAC": "07:56:52        ", "marker-symbol": "circle-15", "marker-color": "#228B22"}}, {"type": "Feature", "geometry": {"type": "Point", "coordinates": [-106.3389779, 31.7500576]}, "properties": {"OBJECTID": 462, "NAME": "El Paso Gateway Dialysis ", "TYPE": "Community Clinic", "TSA": null, "STREET": "Gateway Blvd. West ", "CITY": "El Paso", "COUNTY": "Texas", "ADDRESS": "10767 Gateway W Blvd, Ste 600", "ZIP": "79935", "LATITUDE": 31.7500576, "LONGITUDE": -106.3389779, "PFIZER_AVAILABLE": 0, "MODERNA_AVAILABLE": 40, "VACCINES_AVAILABLE": 40, "Total_Shipped": 100, "PublicPhone": "(915) 599-2891", "WEBSITE": "JOSE.ATILANO@FMC-NA.COM", "RemoveRecord": null, "LAST_UPDATE_VAC": "02/25/2021      ", "LAST_UPDATE_TIME_VAC": "09:35:55        ", "marker-symbol": "circle-15", "marker-color": "#228B22"}}, {"type": "Feature", "geometry": {"type": "Point", "coordinates": [-97.1188887102149, 32.7618374595243]}, "properties": {"OBJECTID": 475, "NAME": "Kroger Pharmacy 543", "TYPE": "Pharmacy", "TSA": null, "STREET": "945 W Lamar Blvd", "CITY": "Arlington", "COUNTY": "Tarrant", "ADDRESS": "945 W Lamar Blvd", "ZIP": "76012", "LATITUDE": 32.7618374595243, "LONGITUDE": -97.1188887102149, "PFIZER_AVAILABLE": 0, "MODERNA_AVAILABLE": 300, "VACCINES_AVAILABLE": 300, "Total_Shipped": 900, "PublicPhone": "(817) 277-2144", "WEBSITE": "http://www.kroger.com/stores/details/035/00543?cid=loc_03500543PP_gmb", "RemoveRecord": null, "LAST_UPDATE_VAC": "02/09/2021      ", "LAST_UPDATE_TIME_VAC": "00:00:00        ", "marker-symbol": "circle-15", "marker-color": "#228B22"}}, {"type": "Feature", "geometry": {"type": "Point", "coordinates": [-96.7880683291283, 32.6857216084868]}, "properties": {"OBJECTID": 496, "NAME": "Cash Saver Pharmacy 19", "TYPE": "Pharmacy", "TSA": null, "STREET": "2130 E Ledbetter Dr", "CITY": "Dallas", "COUNTY": "Dallas", "ADDRESS": "2130 E Ledbetter Dr", "ZIP": "75216", "LATITUDE": 32.6857216084868, "LONGITUDE": -96.7880683291283, "PFIZER_AVAILABLE": 0, "MODERNA_AVAILABLE": 80, "VACCINES_AVAILABLE": 80, "Total_Shipped": 200, "PublicPhone": "+12143743559", "WEBSITE": "http://www.cashsaverpharmacy.com/", "RemoveRecord": null, "LAST_UPDATE_VAC": "02/25/2021      ", "LAST_UPDATE_TIME_VAC": "23:03:40        ", "marker-symbol": "circle-15", "marker-color": "#228B22"}}, {"type": "Feature", "geometry": {"type": "Point", "coordinates": [-95.8414, 32.167019]}, "properties": {"OBJECTID": 504, "NAME": "UT HEALTH - ATHENS", "TYPE": "Hospital", "TSA": "G", "STREET": "2000 S Palestine St", "CITY": " Athens", "COUNTY": "Henderson", "ADDRESS": "2000 S Palestine St, Athens, TX, 75751", "ZIP": "75751", "LATITUDE": 32.167019, "LONGITUDE": -95.8414, "PFIZER_AVAILABLE": 0, "MODERNA_AVAILABLE": 50, "VACCINES_AVAILABLE": 50, "Total_Shipped": 500, "PublicPhone": "(903) 676-1000", "WEBSITE": null, "RemoveRecord": null, "LAST_UPDATE_VAC": "02/23/2021      ", "LAST_UPDATE_TIME_VAC": "17:12:54        ", "marker-symbol": "circle-15", "marker-color": "#228B22"}}, {"type": "Feature", "geometry": {"type": "Point", "coordinates": [-96.9443967691068, 32.8332499103799]}, "properties": {"OBJECTID": 505, "NAME": "Irving Health Center Parkland Health And Hospital", "TYPE": "Other", "TSA": "E", "STREET": "1800 N Britain Rd", "CITY": "Irving", "COUNTY": "Dallas", "ADDRESS": "1800 N Britain Rd", "ZIP": "75061", "LATITUDE": 32.8332499103799, "LONGITUDE": -96.9443967691068, "PFIZER_AVAILABLE": 0, "MODERNA_AVAILABLE": 100, "VACCINES_AVAILABLE": 100, "Total_Shipped": 200, "PublicPhone": "214-266-3031", "WEBSITE": "https://www.parklandhospital.com/locations/irving-health-center-7", "RemoveRecord": null, "LAST_UPDATE_VAC": "02/25/2021      ", "LAST_UPDATE_TIME_VAC": "13:57:19        ", "marker-symbol": "circle-15", "marker-color": "#228B22"}}, {"type": "Feature", "geometry": {"type": "Point", "coordinates": [-96.177434, 33.5822588]}, "properties": {"OBJECTID": 527, "NAME": "Carevide Bonham", "TYPE": "Community Clinic", "TSA": null, "STREET": "920 N Center St", "CITY": "Bonham", "COUNTY": "Fannin", "ADDRESS": "920 North Center Street, Bonham, TX, USA", "ZIP": "75418", "LATITUDE": 33.5822588, "LONGITUDE": -96.177434, "PFIZER_AVAILABLE": 0, "MODERNA_AVAILABLE": 50, "VACCINES_AVAILABLE": 50, "Total_Shipped": 100, "PublicPhone": "903-583-6155", "WEBSITE": null, "RemoveRecord": null, "LAST_UPDATE_VAC": "02/23/2021      ", "LAST_UPDATE_TIME_VAC": "14:00:54        ", "marker-symbol": "circle-15", "marker-color": "#228B22"}}, {"type": "Feature", "geometry": {"type": "Point", "coordinates": [-95.3316740856188, 29.7759912348241]}, "properties": {"OBJECTID": 586, "NAME": "Legacy Community Health Pharmacy Lyons", "TYPE": "Pharmacy", "TSA": null, "STREET": "3811 Lyons Ave", "CITY": "Houston", "COUNTY": "Harris", "ADDRESS": "3811 Lyons Ave", "ZIP": "77020", "LATITUDE": 29.7759912348241, "LONGITUDE": -95.3316740856188, "PFIZER_AVAILABLE": 0, "MODERNA_AVAILABLE": 300, "VACCINES_AVAILABLE": 300, "Total_Shipped": 500, "PublicPhone": "(832) 548-5400", "WEBSITE": "http://www.legacycommunityhealth.org/", "RemoveRecord": null, "LAST_UPDATE_VAC": "02/24/2021      ", "LAST_UPDATE_TIME_VAC": "14:41:25        ", "marker-symbol": "circle-15", "marker-color": "#228B22"}}, {"type": "Feature", "geometry": {"type": "Point", "coordinates": [-93.7473, 30.1058]}, "properties": {"OBJECTID": 611, "NAME": "Kroger Pharmacy 950", "TYPE": "Other", "TSA": "R", "STREET": "1600 N 16th St", "CITY": "Orange", "COUNTY": "Orange", "ADDRESS": "1600 N 16th St Orange, TX 77630", "ZIP": "77630", "LATITUDE": 30.1058, "LONGITUDE": -93.7473, "PFIZER_AVAILABLE": 0, "MODERNA_AVAILABLE": 20, "VACCINES_AVAILABLE": 20, "Total_Shipped": 200, "PublicPhone": "(409) 883-8521", "WEBSITE": null, "RemoveRecord": null, "LAST_UPDATE_VAC": "01/26/2021      ", "LAST_UPDATE_TIME_VAC": "14:45:59        ", "marker-symbol": "circle-15", "marker-color": "#228B22"}}, {"type": "Feature", "geometry": {"type": "Point", "coordinates": [-94.6530319539146, 31.6141083192146]}, "properties": {"OBJECTID": 627, "NAME": "Kroger Pharmacy 990", "TYPE": "Pharmacy", "TSA": null, "STREET": "1215 North St", "CITY": "Nacogdoches", "COUNTY": "Nacogdoches", "ADDRESS": "1215 North St", "ZIP": "75961", "LATITUDE": 31.6141083192146, "LONGITUDE": -94.6530319539146, "PFIZER_AVAILABLE": 0, "MODERNA_AVAILABLE": 50, "VACCINES_AVAILABLE": 50, "Total_Shipped": 300, "PublicPhone": "(936) 569-9884", "WEBSITE": "http://www.kroger.com/stores/details/035/00990?cid=loc_03500990PP_gmb", "RemoveRecord": null, "LAST_UPDATE_VAC": "02/09/2021      ", "LAST_UPDATE_TIME_VAC": "00:00:00        ", "marker-symbol": "circle-15", "marker-color": "#228B22"}}, {"type": "Feature", "geometry": {"type": "Point", "coordinates": [-94.9704666132902, 33.1757761133722]}, "properties": {"OBJECTID": 630, "NAME": "TITUS REGIONAL MEDICAL CENTER", "TYPE": "Hospital", "TSA": "F", "STREET": "2001 North Jefferson", "CITY": "Mount Pleasant", "COUNTY": "Titus", "ADDRESS": "2001 North Jefferson", "ZIP": "75455", "LATITUDE": 33.1757761133722, "LONGITUDE": -94.9704666132902, "PFIZER_AVAILABLE": 0, "MODERNA_AVAILABLE": 840, "VACCINES_AVAILABLE": 840, "Total_Shipped": 4400, "PublicPhone": "(903) 577-6000", "WEBSITE": "https://www.titusregional.com/", "RemoveRecord": null, "LAST_UPDATE_VAC": "02/25/2021      ", "LAST_UPDATE_TIME_VAC": "08:33:04        ", "marker-symbol": "circle-15", "marker-color": "#228B22"}}, {"type": "Feature", "geometry": {"type": "Point", "coordinates": [-99.7316718, 32.470247]}, "properties": {"OBJECTID": 632, "NAME": "Fresenius Kidney Care Abilene", "TYPE": "Other", "TSA": null, "STREET": "1802 Pine St", "CITY": "Abilene", "COUNTY": "Taylor", "ADDRESS": "1802 Pine Street, Abilene, TX, USA", "ZIP": "79601", "LATITUDE": 32.470247, "LONGITUDE": -99.7316718, "PFIZER_AVAILABLE": 0, "MODERNA_AVAILABLE": 100, "VACCINES_AVAILABLE": 100, "Total_Shipped": 100, "PublicPhone": null, "WEBSITE": null, "RemoveRecord": null, "LAST_UPDATE_VAC": "02/25/2021      ", "LAST_UPDATE_TIME_VAC": "08:23:11        ", "marker-symbol": "circle-15", "marker-color": "#228B22"}}, {"type": "Feature", "geometry": {"type": "Point", "coordinates": [-98.5772950488517, 31.45450915715]}, "properties": {"OBJECTID": 635, "NAME": "Mills County Medical Clinic Mills Coun", "TYPE": "Community Clinic", "TSA": null, "STREET": "1510 Hanna Valley Rd", "CITY": "Goldthwaite", "COUNTY": "Mills", "ADDRESS": "1510 Hanna Valley Rd", "ZIP": "76844", "LATITUDE": 31.45450915715, "LONGITUDE": -98.5772950488517, "PFIZER_AVAILABLE": 0, "MODERNA_AVAILABLE": 200, "VACCINES_AVAILABLE": 200, "Total_Shipped": 400, "PublicPhone": "(325) 648-2850", "WEBSITE": "http://hamiltonhospital.org/family-practice-clinics/fpc-of-mills-county/", "RemoveRecord": null, "LAST_UPDATE_VAC": "02/25/2021      ", "LAST_UPDATE_TIME_VAC": "08:42:02        ", "marker-symbol": "circle-15", "marker-color": "#228B22"}}, {"type": "Feature", "geometry": {"type": "Point", "coordinates": [-80.0793997, 26.4595818]}, "properties": {"OBJECTID": 640, "NAME": "Best Value Waddy Pharmacy", "TYPE": "Pharmacy", "TSA": null, "STREET": "106 SW 6th Ave", "CITY": "Mineral Wells", "COUNTY": "Palo Pinto", "ADDRESS": "106 SW 6th Ave", "ZIP": "76067", "LATITUDE": 26.4595818, "LONGITUDE": -80.0793997, "PFIZER_AVAILABLE": 0, "MODERNA_AVAILABLE": 190, "VACCINES_AVAILABLE": 190, "Total_Shipped": 200, "PublicPhone": null, "WEBSITE": null, "RemoveRecord": null, "LAST_UPDATE_VAC": "02/25/2021      ", "LAST_UPDATE_TIME_VAC": "08:34:35        ", "marker-symbol": "circle-15", "marker-color": "#228B22"}}, {"type": "Feature", "geometry": {"type": "Point", "coordinates": [-95.5645993, 29.7949547]}, "properties": {"OBJECTID": 642, "NAME": "HealthQuest Infusion Services", "TYPE": "Pharmacy", "TSA": null, "STREET": "1311 West Sam Houston Pkwy N", "CITY": "Houston", "COUNTY": "Harris", "ADDRESS": "1311 West Sam Houston Pkwy N, Ste #100", "ZIP": "77043", "LATITUDE": 29.7949547, "LONGITUDE": -95.5645993, "PFIZER_AVAILABLE": 0, "MODERNA_AVAILABLE": 60, "VACCINES_AVAILABLE": 60, "Total_Shipped": 100, "PublicPhone": "(832) 612-3500", "WEBSITE": "vaccines@hqrx.com", "RemoveRecord": null, "LAST_UPDATE_VAC": "02/25/2021      ", "LAST_UPDATE_TIME_VAC": "18:34:00        ", "marker-symbol": "circle-15", "marker-color": "#228B22"}}, {"type": "Feature", "geometry": {"type": "Point", "coordinates": [-95.7672631, 29.5542442]}, "properties": {"OBJECTID": 644, "NAME": "Fresenius Medical Care Brazos", "TYPE": "Other", "TSA": null, "STREET": "BF Terry Blvd", "CITY": "Rosenberg", "COUNTY": "Fort Bend", "ADDRESS": "1730 BF Terry Blvd, suite 1102", "ZIP": "77471", "LATITUDE": 29.5542442, "LONGITUDE": -95.7672631, "PFIZER_AVAILABLE": 0, "MODERNA_AVAILABLE": 100, "VACCINES_AVAILABLE": 100, "Total_Shipped": 100, "PublicPhone": null, "WEBSITE": null, "RemoveRecord": null, "LAST_UPDATE_VAC": "02/25/2021      ", "LAST_UPDATE_TIME_VAC": "11:11:09        ", "marker-symbol": "circle-15", "marker-color": "#228B22"}}, {"type": "Feature", "geometry": {"type": "Point", "coordinates": [-98.6775933183173, 30.7429448828075]}, "properties": {"OBJECTID": 650, "NAME": "Midcoast Medical Centercentral", "TYPE": "Other", "TSA": null, "STREET": "W Ollie Street", "CITY": "Llano", "COUNTY": "Llano", "ADDRESS": "200 W Ollie Street", "ZIP": "78643", "LATITUDE": 30.7429448828075, "LONGITUDE": -98.6775933183173, "PFIZER_AVAILABLE": 0, "MODERNA_AVAILABLE": 150, "VACCINES_AVAILABLE": 150, "Total_Shipped": 400, "PublicPhone": null, "WEBSITE": null, "RemoveRecord": null, "LAST_UPDATE_VAC": "02/25/2021      ", "LAST_UPDATE_TIME_VAC": "08:23:30        ", "marker-symbol": "circle-15", "marker-color": "#228B22"}}, {"type": "Feature", "geometry": {"type": "Point", "coordinates": [-120.5551244, 46.605876]}, "properties": {"OBJECTID": 651, "NAME": "Carvajal Pharmacy-San Antonio-3410 Roosevelt Ave ", "TYPE": "Pharmacy", "TSA": null, "STREET": "3410 Roosevelt Ave", "CITY": "San Antonio", "COUNTY": "Bexar", "ADDRESS": "3410 Roosevelt Avenue", "ZIP": "78214", "LATITUDE": 46.605876, "LONGITUDE": -120.5551244, "PFIZER_AVAILABLE": 470, "MODERNA_AVAILABLE": 300, "VACCINES_AVAILABLE": 770, "Total_Shipped": 300, "PublicPhone": null, "WEBSITE": null, "RemoveRecord": null, "LAST_UPDATE_VAC": "02/25/2021      ", "LAST_UPDATE_TIME_VAC": "06:38:52        ", "marker-symbol": "circle-15", "marker-color": "#228B22"}}, {"type": "Feature", "geometry": {"type": "Point", "coordinates": [-97.3708171, 31.0782359]}, "properties": {"OBJECTID": 658, "NAME": "DSHS - Temple", "TYPE": "Other", "TSA": null, "STREET": "2408 S 37th St", "CITY": "Temple", "COUNTY": "Bell", "ADDRESS": "2408 South 37th Street", "ZIP": "76504", "LATITUDE": 31.0782359, "LONGITUDE": -97.3708171, "PFIZER_AVAILABLE": 0, "MODERNA_AVAILABLE": 100, "VACCINES_AVAILABLE": 100, "Total_Shipped": 900, "PublicPhone": null, "WEBSITE": null, "RemoveRecord": null, "LAST_UPDATE_VAC": "02/23/2021      ", "LAST_UPDATE_TIME_VAC": "20:52:17        ", "marker-symbol": "circle-15", "marker-color": "#228B22"}}, {"type": "Feature", "geometry": {"type": "Point", "coordinates": [-96.8020129, 32.7104711]}, "properties": {"OBJECTID": 671, "NAME": "MD KIDS PEDIATRICS - LANCASTER/KIEST", "TYPE": "Medical Practice", "TSA": "E", "STREET": "3200 S. Lancaster, Ste. 181", "CITY": "Dallas", "COUNTY": "Dallas", "ADDRESS": "3200 S. Lancaster, Ste. 181 Dallas, TX  ", "ZIP": "75216", "LATITUDE": 32.7104711, "LONGITUDE": -96.8020129, "PFIZER_AVAILABLE": 0, "MODERNA_AVAILABLE": 99, "VACCINES_AVAILABLE": 99, "Total_Shipped": 200, "PublicPhone": "(469) 488-4600", "WEBSITE": null, "RemoveRecord": null, "LAST_UPDATE_VAC": "02/25/2021      ", "LAST_UPDATE_TIME_VAC": "07:11:28        ", "marker-symbol": "circle-15", "marker-color": "#228B22"}}, {"type": "Feature", "geometry": {"type": "Point", "coordinates": [-97.7035713, 30.4116835]}, "properties": {"OBJECTID": 682, "NAME": "Fresenius Medical Care North Austin", "TYPE": "Other", "TSA": null, "STREET": "12221 Renfert Way", "CITY": "Austin", "COUNTY": "Travis", "ADDRESS": "12221 Renfert Way, Austin, TX, USA", "ZIP": "78758", "LATITUDE": 30.4116835, "LONGITUDE": -97.7035713, "PFIZER_AVAILABLE": 0, "MODERNA_AVAILABLE": 100, "VACCINES_AVAILABLE": 100, "Total_Shipped": 100, "PublicPhone": null, "WEBSITE": null, "RemoveRecord": null, "LAST_UPDATE_VAC": "02/25/2021      ", "LAST_UPDATE_TIME_VAC": "10:30:36        ", "marker-symbol": "circle-15", "marker-color": "#228B22"}}, {"type": "Feature", "geometry": {"type": "Point", "coordinates": [-95.3991674331015, 29.7081549836826]}, "properties": {"OBJECTID": 702, "NAME": "CHI BAYLOR ST. LUKE'S MEDICAL CENTER", "TYPE": "Pharmacy", "TSA": "Q", "STREET": "6720 Bertner Ave", "CITY": "Houston", "COUNTY": "Harris", "ADDRESS": "6720 Bertner Ave", "ZIP": "77030", "LATITUDE": 29.7081549836826, "LONGITUDE": -95.3991674331015, "PFIZER_AVAILABLE": 4560, "MODERNA_AVAILABLE": 0, "VACCINES_AVAILABLE": 4560, "Total_Shipped": 34030, "PublicPhone": "832-844-6352", "WEBSITE": "https://www.stlukeshealth.org/locations/baylor-st-lukes-medical-center?utm_source=LocalSearch&utm_medium=Facility&utm_campaign=CHITexas&utm_term=CHIStLukesHealthBaylorStLukesMedicalCenter&y_source=1_MTUxNjI3NTYtNzE1LWxvY2F0aW9uLndlYnNpdGU%3D", "RemoveRecord": null, "LAST_UPDATE_VAC": "02/25/2021      ", "LAST_UPDATE_TIME_VAC": "22:22:06        ", "marker-symbol": "circle-15", "marker-color": "#228B22"}}, {"type": "Feature", "geometry": {"type": "Point", "coordinates": [-95.4659296542603, 30.2796149675624]}, "properties": {"OBJECTID": 705, "NAME": "Dept of Public Health - Montgomery County / Conroe", "TYPE": "Local Health Department", "TSA": null, "STREET": "1300 South Loop 336 West", "CITY": "Conroe", "COUNTY": "Montgomery", "ADDRESS": "1300 South Loop 336 West", "ZIP": "77304", "LATITUDE": 30.2796149675624, "LONGITUDE": -95.4659296542603, "PFIZER_AVAILABLE": 0, "MODERNA_AVAILABLE": 5300, "VACCINES_AVAILABLE": 5300, "Total_Shipped": 7500, "PublicPhone": "(936) 523-5020", "WEBSITE": "https://www.mcphd-tx.org/", "RemoveRecord": null, "LAST_UPDATE_VAC": "02/24/2021      ", "LAST_UPDATE_TIME_VAC": "08:59:10        ", "marker-symbol": "circle-15", "marker-color": "#228B22"}}, {"type": "Feature", "geometry": {"type": "Point", "coordinates": [-99.2832826439792, 34.1552500670402]}, "properties": {"OBJECTID": 708, "NAME": "DSHS - Vernon", "TYPE": "Local Health Department", "TSA": null, "STREET": "1531 Cumberland St", "CITY": "Vernon", "COUNTY": "Wilbarger", "ADDRESS": "1531 Cumberland St", "ZIP": "76384", "LATITUDE": 34.1552500670402, "LONGITUDE": -99.2832826439792, "PFIZER_AVAILABLE": 0, "MODERNA_AVAILABLE": 270, "VACCINES_AVAILABLE": 270, "Total_Shipped": 600, "PublicPhone": "(940) 647-0156", "WEBSITE": "http://www.dshs.wa.gov/", "RemoveRecord": null, "LAST_UPDATE_VAC": "02/25/2021      ", "LAST_UPDATE_TIME_VAC": "17:32:39        ", "marker-symbol": "circle-15", "marker-color": "#228B22"}}, {"type": "Feature", "geometry": {"type": "Point", "coordinates": [-94.1092439154672, 31.5293677810251]}, "properties": {"OBJECTID": 709, "NAME": "Hope Community Medicine - San Augustine", "TYPE": "Community Clinic", "TSA": null, "STREET": "109 E Main St", "CITY": "San Augustine", "COUNTY": "San Augustine", "ADDRESS": "109 E Main St", "ZIP": "75972", "LATITUDE": 31.5293677810251, "LONGITUDE": -94.1092439154672, "PFIZER_AVAILABLE": 0, "MODERNA_AVAILABLE": 200, "VACCINES_AVAILABLE": 200, "Total_Shipped": 600, "PublicPhone": "(936) 275-4420", "WEBSITE": "http://www.hcmtx.org/", "RemoveRecord": null, "LAST_UPDATE_VAC": "02/25/2021      ", "LAST_UPDATE_TIME_VAC": "08:06:06        ", "marker-symbol": "circle-15", "marker-color": "#228B22"}}, {"type": "Feature", "geometry": {"type": "Point", "coordinates": [-95.4729077292013, 29.86833361437]}, "properties": {"OBJECTID": 711, "NAME": "UT Physicians Multispecialty Clinic - Victory", "TYPE": "Community Clinic", "TSA": "Q", "STREET": "7364 Antoine Dr", "CITY": "Houston", "COUNTY": "Harris", "ADDRESS": "7364 Antoine Dr", "ZIP": "77088", "LATITUDE": 29.86833361437, "LONGITUDE": -95.4729077292013, "PFIZER_AVAILABLE": 0, "MODERNA_AVAILABLE": 335, "VACCINES_AVAILABLE": 335, "Total_Shipped": 1000, "PublicPhone": "(713) 486-7350", "WEBSITE": "https://www.utphysicians.com/clinic/ut-physicians-multispecialty-victory/", "RemoveRecord": null, "LAST_UPDATE_VAC": "02/25/2021      ", "LAST_UPDATE_TIME_VAC": "08:21:58        ", "marker-symbol": "circle-15", "marker-color": "#228B22"}}, {"type": "Feature", "geometry": {"type": "Point", "coordinates": [-95.9105, 30.94248]}, "properties": {"OBJECTID": 712, "NAME": "MADISON ST. JOSEPH, MADISONVILLE", "TYPE": "Hospital", "TSA": "N", "STREET": "100 W Cross St", "CITY": " Madisonville", "COUNTY": "Madison", "ADDRESS": "100 W Cross St, Madisonville, TX, 77864", "ZIP": "77864", "LATITUDE": 30.94248, "LONGITUDE": -95.9105, "PFIZER_AVAILABLE": 0, "MODERNA_AVAILABLE": 100, "VACCINES_AVAILABLE": 100, "Total_Shipped": 300, "PublicPhone": "(936) 348-2631", "WEBSITE": "https://stjoseph.stlukeshealth.org/locations/chi-st-joseph-health-madison-hospital?utm_source=LocalSearch&utm_medium=Facility&utm_campaign=CHITexas&utm_term=CHIStJosephHealthMadisonHospital&y_source=1_MTUxNjI3MjctNzE1LWxvY2F0aW9uLndlYnNpdGU%3D", "RemoveRecord": null, "LAST_UPDATE_VAC": "02/25/2021      ", "LAST_UPDATE_TIME_VAC": "09:19:15        ", "marker-symbol": "circle-15", "marker-color": "#228B22"}}, {"type": "Feature", "geometry": {"type": "Point", "coordinates": [-98.916098139948, 29.1472713597676]}, "properties": {"OBJECTID": 713, "NAME": "South Tx Rural Health Services Devine", "TYPE": "Other", "TSA": null, "STREET": "1010 W HONDO AVE", "CITY": "DEVINE", "COUNTY": "Medina", "ADDRESS": "1010 W HONDO AVE", "ZIP": "78016", "LATITUDE": 29.1472713597676, "LONGITUDE": -98.916098139948, "PFIZER_AVAILABLE": 0, "MODERNA_AVAILABLE": 190, "VACCINES_AVAILABLE": 190, "Total_Shipped": 400, "PublicPhone": "830-879-2502", "WEBSITE": null, "RemoveRecord": null, "LAST_UPDATE_VAC": "02/24/2021      ", "LAST_UPDATE_TIME_VAC": "14:30:39        ", "marker-symbol": "circle-15", "marker-color": "#228B22"}}, {"type": "Feature", "geometry": {"type": "Point", "coordinates": [-99.11648, 28.897157]}, "properties": {"OBJECTID": 714, "NAME": "South Tx Rural Health Services Inc - Pearsall", "TYPE": "Other", "TSA": null, "STREET": "150 Medical Dr. ", "CITY": "Pearsall", "COUNTY": "FRIO", "ADDRESS": "150 Medical Dr. ", "ZIP": " 78061", "LATITUDE": 28.897157, "LONGITUDE": -99.11648, "PFIZER_AVAILABLE": 0, "MODERNA_AVAILABLE": 40, "VACCINES_AVAILABLE": 40, "Total_Shipped": 400, "PublicPhone": null, "WEBSITE": null, "RemoveRecord": null, "LAST_UPDATE_VAC": "02/11/2021      ", "LAST_UPDATE_TIME_VAC": "14:57:50        ", "marker-symbol": "circle-15", "marker-color": "#228B22"}}, {"type": "Feature", "geometry": {"type": "Point", "coordinates": [-95.3288099893037, 32.3465629398576]}, "properties": {"OBJECTID": 725, "NAME": "DSHS - HSR 4/5N - Tyler", "TYPE": "Local Health Department", "TSA": null, "STREET": "2521 West Front Street", "CITY": "Tyler", "COUNTY": "Smith", "ADDRESS": "2521 West Front Street", "ZIP": "75702", "LATITUDE": 32.3465629398576, "LONGITUDE": -95.3288099893037, "PFIZER_AVAILABLE": 0, "MODERNA_AVAILABLE": 1500, "VACCINES_AVAILABLE": 1500, "Total_Shipped": 5200, "PublicPhone": "(903) 595-3585", "WEBSITE": "http://www.dshs.state.tx.us/", "RemoveRecord": null, "LAST_UPDATE_VAC": "02/25/2021      ", "LAST_UPDATE_TIME_VAC": "07:18:11        ", "marker-symbol": "circle-15", "marker-color": "#228B22"}}, {"type": "Feature", "geometry": {"type": "Point", "coordinates": [-97.6812145010016, 26.1658348358078]}, "properties": {"OBJECTID": 732, "NAME": "DSHS - Raymondville", "TYPE": "Local Health Department", "TSA": null, "STREET": "601 W Sesame Drive", "CITY": "Harlingen", "COUNTY": "Cameron", "ADDRESS": "601 W Sesame Drive", "ZIP": "78550", "LATITUDE": 26.1658348358078, "LONGITUDE": -97.6812145010016, "PFIZER_AVAILABLE": 0, "MODERNA_AVAILABLE": 2700, "VACCINES_AVAILABLE": 2700, "Total_Shipped": 5800, "PublicPhone": "(956) 689-5906", "WEBSITE": "https://www.dshs.texas.gov/", "RemoveRecord": null, "LAST_UPDATE_VAC": "02/24/2021      ", "LAST_UPDATE_TIME_VAC": "08:48:00        ", "marker-symbol": "circle-15", "marker-color": "#228B22"}}, {"type": "Feature", "geometry": {"type": "Point", "coordinates": [-97.6713669382366, 26.1742094886371]}, "properties": {"OBJECTID": 736, "NAME": "VALLEY BAPTIST MED CENTER-HARLINGEN", "TYPE": "Hospital", "TSA": "V", "STREET": "2101 Pease St", "CITY": "Harlingen", "COUNTY": "Cameron", "ADDRESS": "2101 Pease St", "ZIP": "78550", "LATITUDE": 26.1742094886371, "LONGITUDE": -97.6713669382366, "PFIZER_AVAILABLE": 0, "MODERNA_AVAILABLE": 1, "VACCINES_AVAILABLE": 1, "Total_Shipped": 7450, "PublicPhone": "(956) 389-1100", "WEBSITE": "https://www.valleybaptist.net/locations/detail/vbmc-harlingen/?utm_campaign=gmb_listings_mgmt&utm_source=gmb-vbmc-harlingen&utm_medium=google-local", "RemoveRecord": null, "LAST_UPDATE_VAC": "02/25/2021      ", "LAST_UPDATE_TIME_VAC": "08:14:56        ", "marker-symbol": "circle-15", "marker-color": "#228B22"}}, {"type": "Feature", "geometry": {"type": "Point", "coordinates": [-95.2920778073799, 32.3422646579996]}, "properties": {"OBJECTID": 737, "NAME": "CHRISTUS MOTHER FRANCES - TYLER", "TYPE": "Hospital", "TSA": "G", "STREET": "800 E Dawson", "CITY": "Tyler", "COUNTY": "Smith", "ADDRESS": "800 E Dawson", "ZIP": "75701", "LATITUDE": 32.3422646579996, "LONGITUDE": -95.2920778073799, "PFIZER_AVAILABLE": 0, "MODERNA_AVAILABLE": 400, "VACCINES_AVAILABLE": 400, "Total_Shipped": 15100, "PublicPhone": "(903) 593-8441", "WEBSITE": "https://www.christushealth.org/trinity/tyler?utm_source=organic&utm_medium=GMB&utm_campaign=website&y_source=1_MTE3ODE0OTItNzE1LWxvY2F0aW9uLmdvb2dsZV93ZWJzaXRlX292ZXJyaWRl", "RemoveRecord": null, "LAST_UPDATE_VAC": "02/25/2021      ", "LAST_UPDATE_TIME_VAC": "15:05:47        ", "marker-symbol": "circle-15", "marker-color": "#228B22"}}, {"type": "Feature", "geometry": {"type": "Point", "coordinates": [-97.3138016542948, 32.8985461745874]}, "properties": {"OBJECTID": 741, "NAME": "MEDICAL CITY - ALLIANCE", "TYPE": "Hospital", "TSA": "E", "STREET": "3101 N Tarrant Pkway", "CITY": "Fort Worth", "COUNTY": "Tarrant", "ADDRESS": "3101 N Tarrant Pkway", "ZIP": "76177", "LATITUDE": 32.8985461745874, "LONGITUDE": -97.3138016542948, "PFIZER_AVAILABLE": 0, "MODERNA_AVAILABLE": 160, "VACCINES_AVAILABLE": 160, "Total_Shipped": 1600, "PublicPhone": "(817) 639-1001", "WEBSITE": "https://medicalcityhealthcare.com/specialties/emergency-care?location=medical-city-alliance?utm_campaign=corp_listings_mgmt&utm_source=google&utm_medium=business_listing", "RemoveRecord": null, "LAST_UPDATE_VAC": "02/25/2021      ", "LAST_UPDATE_TIME_VAC": "12:20:26        ", "marker-symbol": "circle-15", "marker-color": "#228B22"}}, {"type": "Feature", "geometry": {"type": "Point", "coordinates": [-95.508894676114, 29.6874407863652]}, "properties": {"OBJECTID": 743, "NAME": "Clinica Hispana Ii Pa", "TYPE": "Medical Practice", "TSA": null, "STREET": "8410 Fondren Rd", "CITY": "Houston", "COUNTY": "Harris", "ADDRESS": "8410 Fondren Rd", "ZIP": "77074", "LATITUDE": 29.6874407863652, "LONGITUDE": -95.508894676114, "PFIZER_AVAILABLE": 0, "MODERNA_AVAILABLE": 640, "VACCINES_AVAILABLE": 640, "Total_Shipped": 1000, "PublicPhone": "(713) 484-7455", "WEBSITE": null, "RemoveRecord": null, "LAST_UPDATE_VAC": "02/25/2021      ", "LAST_UPDATE_TIME_VAC": "08:01:02        ", "marker-symbol": "circle-15", "marker-color": "#228B22"}}, {"type": "Feature", "geometry": {"type": "Point", "coordinates": [-95.4454692028548, 32.7961774053843]}, "properties": {"OBJECTID": 745, "NAME": "UT HEALTH - QUITMAN", "TYPE": "Hospital", "TSA": "G", "STREET": "117 N. Winnsboro St.", "CITY": " Quitman", "COUNTY": "Wood", "ADDRESS": "117 N. Winnsboro St., Quitman, TX, 75783", "ZIP": "75783", "LATITUDE": 32.7961774053843, "LONGITUDE": -95.4454692028548, "PFIZER_AVAILABLE": 0, "MODERNA_AVAILABLE": 50, "VACCINES_AVAILABLE": 50, "Total_Shipped": 200, "PublicPhone": "(903) 763-6300", "WEBSITE": null, "RemoveRecord": null, "LAST_UPDATE_VAC": "02/25/2021      ", "LAST_UPDATE_TIME_VAC": "09:56:26        ", "marker-symbol": "circle-15", "marker-color": "#228B22"}}, {"type": "Feature", "geometry": {"type": "Point", "coordinates": [-100.802513337756, 36.3337421895735]}, "properties": {"OBJECTID": 785, "NAME": "United Pharmacy 525", "TYPE": "Pharmacy", "TSA": null, "STREET": "2802 Hwy 83 South", "CITY": "Perryton", "COUNTY": "Ochiltree", "ADDRESS": "2802 Hwy 83 South", "ZIP": "79070", "LATITUDE": 36.3337421895735, "LONGITUDE": -100.802513337756, "PFIZER_AVAILABLE": 0, "MODERNA_AVAILABLE": 52, "VACCINES_AVAILABLE": 52, "Total_Shipped": 500, "PublicPhone": "(806) 435-7160", "WEBSITE": "https://local.pharmacy.unitedsupermarkets.com/tx/perryton/2806-s-main-st.html", "RemoveRecord": null, "LAST_UPDATE_VAC": "02/25/2021      ", "LAST_UPDATE_TIME_VAC": "12:12:31        ", "marker-symbol": "circle-15", "marker-color": "#228B22"}}, {"type": "Feature", "geometry": {"type": "Point", "coordinates": [-101.919301553592, 34.9845165549705]}, "properties": {"OBJECTID": 787, "NAME": "United Pharmacy 532", "TYPE": "Pharmacy", "TSA": null, "STREET": "201 N 23rd St", "CITY": "Canyon", "COUNTY": "Randall", "ADDRESS": "201 N 23rd St", "ZIP": "79015", "LATITUDE": 34.9845165549705, "LONGITUDE": -101.919301553592, "PFIZER_AVAILABLE": 0, "MODERNA_AVAILABLE": 200, "VACCINES_AVAILABLE": 200, "Total_Shipped": 1100, "PublicPhone": "(806) 655-5757", "WEBSITE": "https://local.pharmacy.unitedsupermarkets.com/tx/canyon/201-n-23rd-st.html", "RemoveRecord": null, "LAST_UPDATE_VAC": "02/24/2021      ", "LAST_UPDATE_TIME_VAC": "13:43:37        ", "marker-symbol": "circle-15", "marker-color": "#228B22"}}, {"type": "Feature", "geometry": {"type": "Point", "coordinates": [-99.8653263999465, 28.5152413371109]}, "properties": {"OBJECTID": 797, "NAME": "South Tx Rural Health Services - Carrizo Springs", "TYPE": "Community Clinic", "TSA": null, "STREET": "902 S 5TH ST", "CITY": "CARRIZO SPRINGS", "COUNTY": "Dimmit", "ADDRESS": "902 S 5TH ST", "ZIP": "78834", "LATITUDE": 28.5152413371109, "LONGITUDE": -99.8653263999465, "PFIZER_AVAILABLE": 0, "MODERNA_AVAILABLE": 110, "VACCINES_AVAILABLE": 110, "Total_Shipped": 400, "PublicPhone": "(830)876-5263", "WEBSITE": "http://southtexasruralhealth.com/", "RemoveRecord": null, "LAST_UPDATE_VAC": "02/25/2021      ", "LAST_UPDATE_TIME_VAC": "09:38:20        ", "marker-symbol": "circle-15", "marker-color": "#228B22"}}, {"type": "Feature", "geometry": {"type": "Point", "coordinates": [-97.8399401, 30.0146961]}, "properties": {"OBJECTID": 798, "NAME": "CommuniCare Health Center ", "TYPE": "Hospital", "TSA": null, "STREET": "2810 Dacy Ln", "CITY": "Kyle", "COUNTY": "Hays", "ADDRESS": "2810 Dacy Lane, Kyle, TX, USA", "ZIP": "78640", "LATITUDE": 30.0146961, "LONGITUDE": -97.8399401, "PFIZER_AVAILABLE": 0, "MODERNA_AVAILABLE": 1000, "VACCINES_AVAILABLE": 1000, "Total_Shipped": 3050, "PublicPhone": "512-268-8900", "WEBSITE": null, "RemoveRecord": null, "LAST_UPDATE_VAC": "02/25/2021      ", "LAST_UPDATE_TIME_VAC": "08:04:17        ", "marker-symbol": "circle-15", "marker-color": "#228B22"}}, {"type": "Feature", "geometry": {"type": "Point", "coordinates": [-95.3684092, 29.7482473]}, "properties": {"OBJECTID": 810, "NAME": "HEALTHCARE FOR THE HOMELESS-HOUSTON", "TYPE": "Medical Practice", "TSA": "Q", "STREET": "1934 Caroline St", "CITY": "Houston", "COUNTY": "Harris", "ADDRESS": "1934 Caroline St", "ZIP": "77002", "LATITUDE": 29.7482473, "LONGITUDE": -95.3684092, "PFIZER_AVAILABLE": 0, "MODERNA_AVAILABLE": 190, "VACCINES_AVAILABLE": 190, "Total_Shipped": 400, "PublicPhone": null, "WEBSITE": null, "RemoveRecord": null, "LAST_UPDATE_VAC": "02/25/2021      ", "LAST_UPDATE_TIME_VAC": "16:08:51        ", "marker-symbol": "circle-15", "marker-color": "#228B22"}}, {"type": "Feature", "geometry": {"type": "Point", "coordinates": [-99.28506, 33.594956]}, "properties": {"OBJECTID": 834, "NAME": "SEYMOUR HOSPITAL", "TYPE": "Hospital", "TSA": "C", "STREET": "200 Stadium Dr", "CITY": "Seymour", "COUNTY": "Baylor", "ADDRESS": "200 Stadium Dr, Seymour, TX, 76380", "ZIP": "76380", "LATITUDE": 33.594956, "LONGITUDE": -99.28506, "PFIZER_AVAILABLE": 0, "MODERNA_AVAILABLE": 200, "VACCINES_AVAILABLE": 200, "Total_Shipped": 600, "PublicPhone": "(940) 889-5572", "WEBSITE": "http://seymourhospital.com/", "RemoveRecord": null, "LAST_UPDATE_VAC": "02/24/2021      ", "LAST_UPDATE_TIME_VAC": "11:37:43        ", "marker-symbol": "circle-15", "marker-color": "#228B22"}}, {"type": "Feature", "geometry": {"type": "Point", "coordinates": [-96.2629471143069, 32.7392173431534]}, "properties": {"OBJECTID": 850, "NAME": "TERRELL STATE HOSPITAL", "TYPE": "Hospital", "TSA": "E", "STREET": "1200 E Brin St", "CITY": "Terrell", "COUNTY": "Kaufman", "ADDRESS": "1200 E Brin St", "ZIP": "75160", "LATITUDE": 32.7392173431534, "LONGITUDE": -96.2629471143069, "PFIZER_AVAILABLE": 0, "MODERNA_AVAILABLE": 10, "VACCINES_AVAILABLE": 10, "Total_Shipped": 2350, "PublicPhone": "972-524-6452", "WEBSITE": "https://hhs.texas.gov/services/mental-health-substance-use/state-hospitals/terrell-state-hospital", "RemoveRecord": null, "LAST_UPDATE_VAC": "02/24/2021      ", "LAST_UPDATE_TIME_VAC": "20:44:41        ", "marker-symbol": "circle-15", "marker-color": "#228B22"}}, {"type": "Feature", "geometry": {"type": "Point", "coordinates": [-100.227452786745, 33.150091070286]}, "properties": {"OBJECTID": 851, "NAME": "STONEWALL MEMORIAL HOSPITAL", "TYPE": "Hospital", "TSA": "D", "STREET": "821 N Broadway St", "CITY": "Aspermont", "COUNTY": "Stonewall", "ADDRESS": "821 N Broadway St", "ZIP": "79502", "LATITUDE": 33.150091070286, "LONGITUDE": -100.227452786745, "PFIZER_AVAILABLE": 0, "MODERNA_AVAILABLE": 100, "VACCINES_AVAILABLE": 100, "Total_Shipped": 600, "PublicPhone": "(940) 989-3551", "WEBSITE": "http://www.stonewallhospital.org/", "RemoveRecord": null, "LAST_UPDATE_VAC": "02/24/2021      ", "LAST_UPDATE_TIME_VAC": "17:13:22        ", "marker-symbol": "circle-15", "marker-color": "#228B22"}}, {"type": "Feature", "geometry": {"type": "Point", "coordinates": [-96.6141520278922, 32.7218788441117]}, "properties": {"OBJECTID": 862, "NAME": "Foremost Family Hlth Ctr Balch Springs", "TYPE": "Other", "TSA": null, "STREET": "3515 Shepherd Lane", "CITY": "Balch Springs", "COUNTY": "Dallas", "ADDRESS": "3515 Shepherd Lane", "ZIP": "75180", "LATITUDE": 32.7218788441117, "LONGITUDE": -96.6141520278922, "PFIZER_AVAILABLE": 0, "MODERNA_AVAILABLE": 100, "VACCINES_AVAILABLE": 100, "Total_Shipped": 200, "PublicPhone": null, "WEBSITE": null, "RemoveRecord": null, "LAST_UPDATE_VAC": "02/24/2021      ", "LAST_UPDATE_TIME_VAC": "10:31:09        ", "marker-symbol": "circle-15", "marker-color": "#228B22"}}, {"type": "Feature", "geometry": {"type": "Point", "coordinates": [-94.7304037933845, 32.5028973782914]}, "properties": {"OBJECTID": 868, "NAME": "Longview Wellness Center", "TYPE": "Community Clinic", "TSA": null, "STREET": "705 E Marshall Ave", "CITY": "Longview", "COUNTY": "Gregg", "ADDRESS": "705 E Marshall Ave", "ZIP": "75601", "LATITUDE": 32.5028973782914, "LONGITUDE": -94.7304037933845, "PFIZER_AVAILABLE": 0, "MODERNA_AVAILABLE": 70, "VACCINES_AVAILABLE": 70, "Total_Shipped": 700, "PublicPhone": "(903) 758-2610", "WEBSITE": "http://www.wellnesspointe.org/", "RemoveRecord": null, "LAST_UPDATE_VAC": "02/25/2021      ", "LAST_UPDATE_TIME_VAC": "06:00:05        ", "marker-symbol": "circle-15", "marker-color": "#228B22"}}, {"type": "Feature", "geometry": {"type": "Point", "coordinates": [-96.750436, 32.770501]}, "properties": {"OBJECTID": 943, "NAME": "Hatcher Station Health Center", "TYPE": "Other", "TSA": "E", "STREET": "4600 Scyene Rd", "CITY": "Dallas", "COUNTY": "Dallas", "ADDRESS": "4600 Scyene Rd., Dallas, TX 75210", "ZIP": "75210", "LATITUDE": 32.770501, "LONGITUDE": -96.750436, "PFIZER_AVAILABLE": 0, "MODERNA_AVAILABLE": 200, "VACCINES_AVAILABLE": 200, "Total_Shipped": 400, "PublicPhone": "214-266-1113", "WEBSITE": null, "RemoveRecord": null, "LAST_UPDATE_VAC": "02/25/2021      ", "LAST_UPDATE_TIME_VAC": "07:46:00        ", "marker-symbol": "circle-15", "marker-color": "#228B22"}}, {"type": "Feature", "geometry": {"type": "Point", "coordinates": [-102.413711968071, 34.8389580169874]}, "properties": {"OBJECTID": 952, "NAME": "Hereford Health Clinic", "TYPE": "Community Clinic", "TSA": null, "STREET": "540 W 15th", "CITY": "Hereford", "COUNTY": "Deaf Smith", "ADDRESS": "540 W 15th", "ZIP": "79045", "LATITUDE": 34.8389580169874, "LONGITUDE": -102.413711968071, "PFIZER_AVAILABLE": 0, "MODERNA_AVAILABLE": 320, "VACCINES_AVAILABLE": 320, "Total_Shipped": 1300, "PublicPhone": "(806) 364-7512", "WEBSITE": "https://dschd.org/clinic/", "RemoveRecord": null, "LAST_UPDATE_VAC": "02/25/2021      ", "LAST_UPDATE_TIME_VAC": "10:54:48        ", "marker-symbol": "circle-15", "marker-color": "#228B22"}}, {"type": "Feature", "geometry": {"type": "Point", "coordinates": [-94.135634, 30.068767]}, "properties": {"OBJECTID": 966, "NAME": "BEAUMONT ELITE EMERGENCY CTR LLC", "TYPE": "Medical Practice", "TSA": "R", "STREET": "4004 College Street", "CITY": " Beaumont", "COUNTY": "Jefferson", "ADDRESS": "4004 College Street, Beaumont, TX, 77707", "ZIP": "77707", "LATITUDE": 30.068767, "LONGITUDE": -94.135634, "PFIZER_AVAILABLE": 0, "MODERNA_AVAILABLE": 90, "VACCINES_AVAILABLE": 90, "Total_Shipped": 200, "PublicPhone": "(409) 840-4004", "WEBSITE": "https://beaumontemergencycenter.com/", "RemoveRecord": null, "LAST_UPDATE_VAC": "02/25/2021      ", "LAST_UPDATE_TIME_VAC": "17:16:22        ", "marker-symbol": "circle-15", "marker-color": "#228B22"}}, {"type": "Feature", "geometry": {"type": "Point", "coordinates": [-95.317035, 29.810566]}, "properties": {"OBJECTID": 976, "NAME": "Cleveland E Odom", "TYPE": "Other", "TSA": null, "STREET": "5516 Lockwood Dr", "CITY": "Houston", "COUNTY": "HARRIS", "ADDRESS": "5516 Lockwood Dr", "ZIP": "77026", "LATITUDE": 29.810566, "LONGITUDE": -95.317035, "PFIZER_AVAILABLE": 0, "MODERNA_AVAILABLE": 101, "VACCINES_AVAILABLE": 101, "Total_Shipped": 200, "PublicPhone": null, "WEBSITE": null, "RemoveRecord": null, "LAST_UPDATE_VAC": "02/25/2021      ", "LAST_UPDATE_TIME_VAC": "08:42:59        ", "marker-symbol": "circle-15", "marker-color": "#228B22"}}, {"type": "Feature", "geometry": {"type": "Point", "coordinates": [-95.301021, 29.7345052]}, "properties": {"OBJECTID": 979, "NAME": "El Centro De Corazon Magnolia Clinic", "TYPE": "Community Clinic", "TSA": null, "STREET": "Capitol St", "CITY": "Houston", "COUNTY": "Harris ", "ADDRESS": "7037 Capitol St suite 100", "ZIP": "77011", "LATITUDE": 29.7345052, "LONGITUDE": -95.301021, "PFIZER_AVAILABLE": 710, "MODERNA_AVAILABLE": 0, "VACCINES_AVAILABLE": 710, "Total_Shipped": 200, "PublicPhone": null, "WEBSITE": null, "RemoveRecord": null, "LAST_UPDATE_VAC": "02/25/2021      ", "LAST_UPDATE_TIME_VAC": "07:28:07        ", "marker-symbol": "circle-15", "marker-color": "#228B22"}}, {"type": "Feature", "geometry": {"type": "Point", "coordinates": [-96.5746581, 29.7030659]}, "properties": {"OBJECTID": 983, "NAME": "Colorado County EMS", "TYPE": "Other", "TSA": null, "STREET": "Radio Ln", "CITY": "Columbus", "COUNTY": "Colorado", "ADDRESS": "305 RADIO LN # 101", "ZIP": "78934", "LATITUDE": 29.7030659, "LONGITUDE": -96.5746581, "PFIZER_AVAILABLE": 0, "MODERNA_AVAILABLE": 500, "VACCINES_AVAILABLE": 500, "Total_Shipped": 700, "PublicPhone": "979-732-2188", "WEBSITE": null, "RemoveRecord": null, "LAST_UPDATE_VAC": "02/25/2021      ", "LAST_UPDATE_TIME_VAC": "14:48:54        ", "marker-symbol": "circle-15", "marker-color": "#228B22"}}, {"type": "Feature", "geometry": {"type": "Point", "coordinates": [-99.177716, 28.669024]}, "properties": {"OBJECTID": 988, "NAME": "S Tx Rhs Inc", "TYPE": "Other", "TSA": null, "STREET": "606 W Leona St", "CITY": "Dilley", "COUNTY": "FRIO", "ADDRESS": "606 W Leona St", "ZIP": "78017", "LATITUDE": 28.669024, "LONGITUDE": -99.177716, "PFIZER_AVAILABLE": 0, "MODERNA_AVAILABLE": 110, "VACCINES_AVAILABLE": 110, "Total_Shipped": 200, "PublicPhone": null, "WEBSITE": null, "RemoveRecord": null, "LAST_UPDATE_VAC": "02/25/2021      ", "LAST_UPDATE_TIME_VAC": "09:38:32        ", "marker-symbol": "circle-15", "marker-color": "#228B22"}}, {"type": "Feature", "geometry": {"type": "Point", "coordinates": [-99.744933443025, 32.3716889100017]}, "properties": {"OBJECTID": 995, "NAME": "Encompass Health Rehabilitation Hospital - Abilene", "TYPE": "Hospital", "TSA": null, "STREET": "6401 Directors Parkway", "CITY": "Abilene", "COUNTY": "Taylor", "ADDRESS": "6401 Directors Parkway", "ZIP": "79606", "LATITUDE": 32.3716889100017, "LONGITUDE": -99.744933443025, "PFIZER_AVAILABLE": 0, "MODERNA_AVAILABLE": 107, "VACCINES_AVAILABLE": 107, "Total_Shipped": 400, "PublicPhone": "Non-Public", "WEBSITE": "http://encompasshealth.com", "RemoveRecord": null, "LAST_UPDATE_VAC": "02/25/2021      ", "LAST_UPDATE_TIME_VAC": "09:53:46        ", "marker-symbol": "circle-15", "marker-color": "#228B22"}}, {"type": "Feature", "geometry": {"type": "Point", "coordinates": [-95.4558475387547, 30.2010274446573]}, "properties": {"OBJECTID": 998, "NAME": "TEXAS CHILDREN'S WOODLANDS (LEVEL IV)", "TYPE": "Hospital", "TSA": "Q", "STREET": "17600 Interstate 45 S", "CITY": "Conroe", "COUNTY": "Montgomery", "ADDRESS": "17600 Interstate 45 S", "ZIP": "77384", "LATITUDE": 30.2010274446573, "LONGITUDE": -95.4558475387547, "PFIZER_AVAILABLE": 0, "MODERNA_AVAILABLE": 5, "VACCINES_AVAILABLE": 5, "Total_Shipped": 6245, "PublicPhone": "(936) 267-5000", "WEBSITE": "http://www.texaschildrens.org/woodlands", "RemoveRecord": null, "LAST_UPDATE_VAC": "02/25/2021      ", "LAST_UPDATE_TIME_VAC": "07:39:27        ", "marker-symbol": "circle-15", "marker-color": "#228B22"}}, {"type": "Feature", "geometry": {"type": "Point", "coordinates": [-100.212099733931, 34.849080217397]}, "properties": {"OBJECTID": 1005, "NAME": "Collingsworth Family Medicine", "TYPE": "Community Clinic", "TSA": null, "STREET": "1011 15th St", "CITY": "Wellington", "COUNTY": "Collingsworth", "ADDRESS": "1011 15th St", "ZIP": "79095", "LATITUDE": 34.849080217397, "LONGITUDE": -100.212099733931, "PFIZER_AVAILABLE": 0, "MODERNA_AVAILABLE": 100, "VACCINES_AVAILABLE": 100, "Total_Shipped": 500, "PublicPhone": "(806) 447-5311", "WEBSITE": "https://culbersonhospital.org/clinic/", "RemoveRecord": null, "LAST_UPDATE_VAC": "02/25/2021      ", "LAST_UPDATE_TIME_VAC": "07:56:20        ", "marker-symbol": "circle-15", "marker-color": "#228B22"}}, {"type": "Feature", "geometry": {"type": "Point", "coordinates": [-95.3667231414588, 29.7481423448244]}, "properties": {"OBJECTID": 1012, "NAME": "ST. JOSEPH MEDICAL CENTER", "TYPE": "Hospital", "TSA": "Q", "STREET": "1401 St Joseph Pkwy", "CITY": "Houston", "COUNTY": "Harris", "ADDRESS": "1401 St Joseph Pkwy", "ZIP": "77002", "LATITUDE": 29.7481423448244, "LONGITUDE": -95.3667231414588, "PFIZER_AVAILABLE": 0, "MODERNA_AVAILABLE": 6, "VACCINES_AVAILABLE": 6, "Total_Shipped": 3400, "PublicPhone": "713-757-1000", "WEBSITE": "https://www.sjmctx.org/", "RemoveRecord": null, "LAST_UPDATE_VAC": "02/25/2021      ", "LAST_UPDATE_TIME_VAC": "12:16:23        ", "marker-symbol": "circle-15", "marker-color": "#228B22"}}, {"type": "Feature", "geometry": {"type": "Point", "coordinates": [-94.965949, 33.016008]}, "properties": {"OBJECTID": 1015, "NAME": "UT HEALTH - PITTSBURG", "TYPE": "Hospital", "TSA": "G", "STREET": "2701  US Highway 271 North", "CITY": "Pittsburg", "COUNTY": "Camp", "ADDRESS": "2701  US Highway 271 North, Pittsburg, TX, 75686", "ZIP": "75686", "LATITUDE": 33.016008, "LONGITUDE": -94.965949, "PFIZER_AVAILABLE": 0, "MODERNA_AVAILABLE": 150, "VACCINES_AVAILABLE": 150, "Total_Shipped": 500, "PublicPhone": "(903) 946-5000", "WEBSITE": null, "RemoveRecord": null, "LAST_UPDATE_VAC": "02/25/2021      ", "LAST_UPDATE_TIME_VAC": "09:54:43        ", "marker-symbol": "circle-15", "marker-color": "#228B22"}}, {"type": "Feature", "geometry": {"type": "Point", "coordinates": [-94.796404, 32.161635]}, "properties": {"OBJECTID": 1016, "NAME": "UT HEALTH - HENDERSON", "TYPE": "Hospital", "TSA": "G", "STREET": "300 Wilson Street", "CITY": " Henderson", "COUNTY": "Rusk", "ADDRESS": "300 Wilson Street, Henderson, TX, 75652", "ZIP": "75652", "LATITUDE": 32.161635, "LONGITUDE": -94.796404, "PFIZER_AVAILABLE": 0, "MODERNA_AVAILABLE": 100, "VACCINES_AVAILABLE": 100, "Total_Shipped": 500, "PublicPhone": "(903) 657-7541", "WEBSITE": null, "RemoveRecord": null, "LAST_UPDATE_VAC": "02/25/2021      ", "LAST_UPDATE_TIME_VAC": "09:06:03        ", "marker-symbol": "circle-15", "marker-color": "#228B22"}}, {"type": "Feature", "geometry": {"type": "Point", "coordinates": [-94.1633299897254, 33.1056179912321]}, "properties": {"OBJECTID": 1032, "NAME": "CHRISTUS ST. MICHAEL - ATLANTA", "TYPE": "Hospital", "TSA": "F", "STREET": "1007 S William St", "CITY": "Atlanta", "COUNTY": "Cass", "ADDRESS": "1007 S William St", "ZIP": "75551", "LATITUDE": 33.1056179912321, "LONGITUDE": -94.1633299897254, "PFIZER_AVAILABLE": 0, "MODERNA_AVAILABLE": 100, "VACCINES_AVAILABLE": 100, "Total_Shipped": 300, "PublicPhone": "(903) 799-3000", "WEBSITE": "https://www.christushealth.org/st-michael-atlanta?utm_source=organic&utm_medium=GMB&utm_campaign=website", "RemoveRecord": null, "LAST_UPDATE_VAC": "02/25/2021      ", "LAST_UPDATE_TIME_VAC": "11:09:07        ", "marker-symbol": "circle-15", "marker-color": "#228B22"}}, {"type": "Feature", "geometry": {"type": "Point", "coordinates": [-96.22273, 28.735638]}, "properties": {"OBJECTID": 1123, "NAME": "Palacios Medical Clinic", "TYPE": "Community Clinic", "TSA": null, "STREET": "307 Green Ave", "CITY": "Palacios", "COUNTY": "Matagorda", "ADDRESS": "307 Green Ave", "ZIP": "77465", "LATITUDE": 28.735638, "LONGITUDE": -96.22273, "PFIZER_AVAILABLE": 0, "MODERNA_AVAILABLE": 300, "VACCINES_AVAILABLE": 300, "Total_Shipped": 500, "PublicPhone": "(361) 972-2000", "WEBSITE": "http://www.palacioshospital.net/service/primary-care-clinic/", "RemoveRecord": null, "LAST_UPDATE_VAC": "02/25/2021      ", "LAST_UPDATE_TIME_VAC": "07:52:23        ", "marker-symbol": "circle-15", "marker-color": "#228B22"}}, {"type": "Feature", "geometry": {"type": "Point", "coordinates": [-97.43459737, 32.73334393]}, "properties": {"OBJECTID": 1138, "NAME": "Texas Health Care, P.L.L.C.", "TYPE": "Medical Practice", "TSA": "E", "STREET": "2821 Lackland Rd", "CITY": "Fort Worth", "COUNTY": "Tarrant", "ADDRESS": "2821 Lackland Rd, Suite 300", "ZIP": "76116", "LATITUDE": 32.73334393, "LONGITUDE": -97.43459737, "PFIZER_AVAILABLE": 0, "MODERNA_AVAILABLE": 50, "VACCINES_AVAILABLE": 50, "Total_Shipped": 600, "PublicPhone": null, "WEBSITE": null, "RemoveRecord": null, "LAST_UPDATE_VAC": "02/25/2021      ", "LAST_UPDATE_TIME_VAC": "10:48:40        ", "marker-symbol": "circle-15", "marker-color": "#228B22"}}, {"type": "Feature", "geometry": {"type": "Point", "coordinates": [-96.8430239317566, 32.8277624443214]}, "properties": {"OBJECTID": 1144, "NAME": "Bluebonnet Hospice of East Texas, Inc", "TYPE": "Other", "TSA": null, "STREET": "Maple Ave", "CITY": "Dallas", "COUNTY": "Dallas", "ADDRESS": "6400 Maple Ave", "ZIP": "75235", "LATITUDE": 32.8277624443214, "LONGITUDE": -96.8430239317566, "PFIZER_AVAILABLE": 0, "MODERNA_AVAILABLE": 130, "VACCINES_AVAILABLE": 130, "Total_Shipped": 200, "PublicPhone": null, "WEBSITE": null, "RemoveRecord": null, "LAST_UPDATE_VAC": "02/25/2021      ", "LAST_UPDATE_TIME_VAC": "09:09:33        ", "marker-symbol": "circle-15", "marker-color": "#228B22"}}, {"type": "Feature", "geometry": {"type": "Point", "coordinates": [-101.921855687127, 35.1997580869122]}, "properties": {"OBJECTID": 1149, "NAME": "Northwest Texas Hospital Pharmacy", "TYPE": "Hospital", "TSA": null, "STREET": "1501 S Coulter St", "CITY": "Amarillo", "COUNTY": "Potter", "ADDRESS": "1501 S Coulter St", "ZIP": "79106", "LATITUDE": 35.1997580869122, "LONGITUDE": -101.921855687127, "PFIZER_AVAILABLE": 2034, "MODERNA_AVAILABLE": 0, "VACCINES_AVAILABLE": 2034, "Total_Shipped": 5100, "PublicPhone": "(806) 354-1000", "WEBSITE": "https://www.nwths.com/?utm_source=google-business&utm_medium=organic&utm_campaign=homepage", "RemoveRecord": null, "LAST_UPDATE_VAC": "02/23/2021      ", "LAST_UPDATE_TIME_VAC": "22:06:17        ", "marker-symbol": "circle-15", "marker-color": "#228B22"}}, {"type": "Feature", "geometry": {"type": "Point", "coordinates": [-98.584911, 33.089869]}, "properties": {"OBJECTID": 1156, "NAME": "GRAHAM REGIONAL MEDICAL CENTER", "TYPE": "Hospital", "TSA": "C", "STREET": "1301 Montgomery Rd", "CITY": " Graham", "COUNTY": "Young", "ADDRESS": "1301 Montgomery Rd, Graham, TX, 76450", "ZIP": "76450", "LATITUDE": 33.089869, "LONGITUDE": -98.584911, "PFIZER_AVAILABLE": 0, "MODERNA_AVAILABLE": 496, "VACCINES_AVAILABLE": 496, "Total_Shipped": 1300, "PublicPhone": "(940) 549-3400", "WEBSITE": null, "RemoveRecord": null, "LAST_UPDATE_VAC": "02/25/2021      ", "LAST_UPDATE_TIME_VAC": "14:22:37        ", "marker-symbol": "circle-15", "marker-color": "#228B22"}}, {"type": "Feature", "geometry": {"type": "Point", "coordinates": [-97.7842837427096, 26.4670317797091]}, "properties": {"OBJECTID": 1161, "NAME": "Su Clinica - Raymondville", "TYPE": "Other", "TSA": null, "STREET": "131 Fm 3168", "CITY": "Raymondville", "COUNTY": "Willacy", "ADDRESS": "131 Fm 3168", "ZIP": "78580", "LATITUDE": 26.4670317797091, "LONGITUDE": -97.7842837427096, "PFIZER_AVAILABLE": 0, "MODERNA_AVAILABLE": 100, "VACCINES_AVAILABLE": 100, "Total_Shipped": 300, "PublicPhone": null, "WEBSITE": null, "RemoveRecord": null, "LAST_UPDATE_VAC": "02/25/2021      ", "LAST_UPDATE_TIME_VAC": "08:55:42        ", "marker-symbol": "circle-15", "marker-color": "#228B22"}}, {"type": "Feature", "geometry": {"type": "Point", "coordinates": [-101.334843179833, 33.9842197690086]}, "properties": {"OBJECTID": 1167, "NAME": "Payne Family Pharmacy", "TYPE": "Pharmacy", "TSA": null, "STREET": "200 S Main St", "CITY": "Floydada", "COUNTY": "Floyd", "ADDRESS": "200 S Main St", "ZIP": "79235", "LATITUDE": 33.9842197690086, "LONGITUDE": -101.334843179833, "PFIZER_AVAILABLE": 0, "MODERNA_AVAILABLE": 100, "VACCINES_AVAILABLE": 100, "Total_Shipped": 300, "PublicPhone": "(806) 983-5111", "WEBSITE": "https://www.mygnp.com/pharmacies/payne-family-pharmacy-floydada-tx-79235/?utm_source=google&utm_medium=local&utm_campaign=localmaps&utm_content=4590851", "RemoveRecord": null, "LAST_UPDATE_VAC": "02/25/2021      ", "LAST_UPDATE_TIME_VAC": "16:51:17        ", "marker-symbol": "circle-15", "marker-color": "#228B22"}}, {"type": "Feature", "geometry": {"type": "Point", "coordinates": [-99.8481640598397, 31.2213589814377]}, "properties": {"OBJECTID": 1177, "NAME": "CCH Pharmacy", "TYPE": "Hospital", "TSA": null, "STREET": "614 Eaker St", "CITY": "Eden", "COUNTY": "Concho", "ADDRESS": "614 Eaker St Eden 76837", "ZIP": "76837", "LATITUDE": 31.2213589814377, "LONGITUDE": -99.8481640598397, "PFIZER_AVAILABLE": 0, "MODERNA_AVAILABLE": 100, "VACCINES_AVAILABLE": 100, "Total_Shipped": 400, "PublicPhone": "(325) 869-8760", "WEBSITE": "http://www.conchocounty.hospital/", "RemoveRecord": null, "LAST_UPDATE_VAC": "02/25/2021      ", "LAST_UPDATE_TIME_VAC": "17:06:59        ", "marker-symbol": "circle-15", "marker-color": "#228B22"}}, {"type": "Feature", "geometry": {"type": "Point", "coordinates": [-101.842707973832, 30.7897799931419]}, "properties": {"OBJECTID": 1190, "NAME": "IRAAN GENERAL HOSPITAL", "TYPE": "Community Clinic", "TSA": "J", "STREET": "600 Hwy 349 North", "CITY": "Iraan", "COUNTY": "Pecos", "ADDRESS": "600 Hwy 349 North", "ZIP": "79744", "LATITUDE": 30.7897799931419, "LONGITUDE": -101.842707973832, "PFIZER_AVAILABLE": 0, "MODERNA_AVAILABLE": 300, "VACCINES_AVAILABLE": 300, "Total_Shipped": 200, "PublicPhone": "(432) 639-2580", "WEBSITE": "http://www.igh-hospital.com/getpage.php?name=medical_clinic", "RemoveRecord": null, "LAST_UPDATE_VAC": "02/25/2021      ", "LAST_UPDATE_TIME_VAC": "14:48:09        ", "marker-symbol": "circle-15", "marker-color": "#228B22"}}, {"type": "Feature", "geometry": {"type": "Point", "coordinates": [-102.758085, 33.7193]}, "properties": {"OBJECTID": 1192, "NAME": "COCHRAN MEMORIAL HOSPITAL", "TYPE": "Hospital", "TSA": "B", "STREET": "201 East Grant", "CITY": " Morton", "COUNTY": "Cochran", "ADDRESS": "201 East Grant, Morton, TX, 79346", "ZIP": "79346", "LATITUDE": 33.7193, "LONGITUDE": -102.758085, "PFIZER_AVAILABLE": 0, "MODERNA_AVAILABLE": 40, "VACCINES_AVAILABLE": 40, "Total_Shipped": 400, "PublicPhone": "(806) 266-5565", "WEBSITE": "https://www.facebook.com/cochranmemorialhospital/", "RemoveRecord": null, "LAST_UPDATE_VAC": "02/25/2021      ", "LAST_UPDATE_TIME_VAC": "10:00:52        ", "marker-symbol": "circle-15", "marker-color": "#228B22"}}, {"type": "Feature", "geometry": {"type": "Point", "coordinates": [-96.8335574635417, 33.045061071266]}, "properties": {"OBJECTID": 1223, "NAME": "Internal Medicine Associates Of Plano", "TYPE": "Medical Practice", "TSA": null, "STREET": "6124 W Parker Rd Ste 234", "CITY": "Plano", "COUNTY": "Collin", "ADDRESS": "6124 W Parker Rd Ste 234", "ZIP": "75093", "LATITUDE": 33.045061071266, "LONGITUDE": -96.8335574635417, "PFIZER_AVAILABLE": 0, "MODERNA_AVAILABLE": 526, "VACCINES_AVAILABLE": 526, "Total_Shipped": 2400, "PublicPhone": "(972) 468-9999", "WEBSITE": "http://www.planointernist.com/", "RemoveRecord": null, "LAST_UPDATE_VAC": "02/25/2021      ", "LAST_UPDATE_TIME_VAC": "08:00:29        ", "marker-symbol": "circle-15", "marker-color": "#228B22"}}, {"type": "Feature", "geometry": {"type": "Point", "coordinates": [-94.118981, 30.068467]}, "properties": {"OBJECTID": 1226, "NAME": "BAPTIST HOSPITAL OF SE TEXAS - BEAUMONT", "TYPE": "Pharmacy", "TSA": "R", "STREET": "3080 College St", "CITY": " Beaumont", "COUNTY": "Jefferson", "ADDRESS": "3080 College St, Beaumont, TX, 77701", "ZIP": "77701", "LATITUDE": 30.068467, "LONGITUDE": -94.118981, "PFIZER_AVAILABLE": 255, "MODERNA_AVAILABLE": 100, "VACCINES_AVAILABLE": 355, "Total_Shipped": 4100, "PublicPhone": "(409) 212-5000", "WEBSITE": null, "RemoveRecord": null, "LAST_UPDATE_VAC": "02/25/2021      ", "LAST_UPDATE_TIME_VAC": "11:34:40        ", "marker-symbol": "circle-15", "marker-color": "#228B22"}}, {"type": "Feature", "geometry": {"type": "Point", "coordinates": [-99.1341290171204, 29.3371505292639]}, "properties": {"OBJECTID": 1240, "NAME": "South Tx Rural Health Services of Hondo", "TYPE": "Other", "TSA": null, "STREET": null, "CITY": "Hondo", "COUNTY": "Medina", "ADDRESS": "2912 Avenue E", "ZIP": "78861", "LATITUDE": 29.3371505292639, "LONGITUDE": -99.1341290171204, "PFIZER_AVAILABLE": 0, "MODERNA_AVAILABLE": 30, "VACCINES_AVAILABLE": 30, "Total_Shipped": 200, "PublicPhone": null, "WEBSITE": null, "RemoveRecord": null, "LAST_UPDATE_VAC": "02/25/2021      ", "LAST_UPDATE_TIME_VAC": "09:10:27        ", "marker-symbol": "circle-15", "marker-color": "#228B22"}}, {"type": "Feature", "geometry": {"type": "Point", "coordinates": [-99.2362789179092, 28.4364095683834]}, "properties": {"OBJECTID": 1241, "NAME": "South Tx Rural Health Serv Cotulla", "TYPE": "Other", "TSA": null, "STREET": "105 S Stewart", "CITY": "Cotulla", "COUNTY": "La Salle", "ADDRESS": "105 S Stewart", "ZIP": "78014", "LATITUDE": 28.4364095683834, "LONGITUDE": -99.2362789179092, "PFIZER_AVAILABLE": 0, "MODERNA_AVAILABLE": 20, "VACCINES_AVAILABLE": 20, "Total_Shipped": 300, "PublicPhone": null, "WEBSITE": null, "RemoveRecord": null, "LAST_UPDATE_VAC": "02/25/2021      ", "LAST_UPDATE_TIME_VAC": "15:44:18        ", "marker-symbol": "circle-15", "marker-color": "#228B22"}}, {"type": "Feature", "geometry": {"type": "Point", "coordinates": [-96.8356412742232, 32.8132960711027]}, "properties": {"OBJECTID": 1255, "NAME": "Parkland Health And Hospital/Homes", "TYPE": "Community Clinic", "TSA": null, "STREET": "4811 Harry Hines Blvd", "CITY": "Dallas", "COUNTY": "Dallas", "ADDRESS": "4811 Harry Hines Blvd", "ZIP": "75235", "LATITUDE": 32.8132960711027, "LONGITUDE": -96.8356412742232, "PFIZER_AVAILABLE": 0, "MODERNA_AVAILABLE": 300, "VACCINES_AVAILABLE": 300, "Total_Shipped": 300, "PublicPhone": "214-590-8000", "WEBSITE": null, "RemoveRecord": null, "LAST_UPDATE_VAC": "02/25/2021      ", "LAST_UPDATE_TIME_VAC": "07:08:14        ", "marker-symbol": "circle-15", "marker-color": "#228B22"}}, {"type": "Feature", "geometry": {"type": "Point", "coordinates": [-98.330362, 26.288246]}, "properties": {"OBJECTID": 1262, "NAME": "Nuestra Clinica del Valle -Alton", "TYPE": "Community Clinic", "TSA": null, "STREET": "201 S Los Ebanos Blvd", "CITY": "Alton", "COUNTY": "Hidalgo", "ADDRESS": "201 South Los Ebanos Boulevard", "ZIP": "78574", "LATITUDE": 26.288246, "LONGITUDE": -98.330362, "PFIZER_AVAILABLE": 0, "MODERNA_AVAILABLE": 100, "VACCINES_AVAILABLE": 100, "Total_Shipped": 300, "PublicPhone": "956-519-1800", "WEBSITE": null, "RemoveRecord": null, "LAST_UPDATE_VAC": "02/25/2021      ", "LAST_UPDATE_TIME_VAC": "08:08:24        ", "marker-symbol": "circle-15", "marker-color": "#228B22"}}, {"type": "Feature", "geometry": {"type": "Point", "coordinates": [-101.971831, 35.86417]}, "properties": {"OBJECTID": 1265, "NAME": "MOORE COUNTY HOSPITAL DISTRICT", "TYPE": "Hospital", "TSA": "A", "STREET": "224 E 2nd St", "CITY": "Dumas", "COUNTY": "Moore", "ADDRESS": "224 E 2nd St, Dumas, TX, 79029", "ZIP": "79029", "LATITUDE": 35.86417, "LONGITUDE": -101.971831, "PFIZER_AVAILABLE": 0, "MODERNA_AVAILABLE": 200, "VACCINES_AVAILABLE": 200, "Total_Shipped": 600, "PublicPhone": "(806) 935-7171", "WEBSITE": "http://www.mchd.net/", "RemoveRecord": null, "LAST_UPDATE_VAC": "02/25/2021      ", "LAST_UPDATE_TIME_VAC": "09:12:31        ", "marker-symbol": "circle-15", "marker-color": "#228B22"}}, {"type": "Feature", "geometry": {"type": "Point", "coordinates": [-97.70392, 30.384204]}, "properties": {"OBJECTID": 1324, "NAME": "North Austin Medical Center (St. David's)", "TYPE": "Hospital", "TSA": "O", "STREET": "12221 Mopac Exp North", "CITY": "Austin", "COUNTY": "Travis", "ADDRESS": "12221 N MoPAC Expwy, Austin, TX, 78758", "ZIP": "78758", "LATITUDE": 30.384204, "LONGITUDE": -97.70392, "PFIZER_AVAILABLE": 10, "MODERNA_AVAILABLE": 0, "VACCINES_AVAILABLE": 10, "Total_Shipped": 7100, "PublicPhone": "512-901-1000", "WEBSITE": "http://www.stdavids.com/medical-services/pediatrics?utm_campaign=corp_listings_mgmt&utm_source=google&utm_medium=business_listing", "RemoveRecord": null, "LAST_UPDATE_VAC": "02/25/2021      ", "LAST_UPDATE_TIME_VAC": "16:02:49        ", "marker-symbol": "circle-15", "marker-color": "#228B22"}}, {"type": "Feature", "geometry": {"type": "Point", "coordinates": [-93.8634313388726, 31.3342814766199]}, "properties": {"OBJECTID": 1328, "NAME": "SABINE COUNTY HOSPITAL - HEMPHILL", "TYPE": "Hospital", "TSA": "H", "STREET": "2301 Worth St", "CITY": "Hemphill", "COUNTY": "Sabine", "ADDRESS": "2301 Worth St", "ZIP": "75948", "LATITUDE": 31.3342814766199, "LONGITUDE": -93.8634313388726, "PFIZER_AVAILABLE": 0, "MODERNA_AVAILABLE": 400, "VACCINES_AVAILABLE": 400, "Total_Shipped": 800, "PublicPhone": "(409) 787-3300", "WEBSITE": "http://sabinecountyhospital.com/", "RemoveRecord": null, "LAST_UPDATE_VAC": "02/25/2021      ", "LAST_UPDATE_TIME_VAC": "17:10:11        ", "marker-symbol": "circle-15", "marker-color": "#228B22"}}, {"type": "Feature", "geometry": {"type": "Point", "coordinates": [-95.40466, 29.704584]}, "properties": {"OBJECTID": 1332, "NAME": "Texas Childrens Hospital Main", "TYPE": "Hospital", "TSA": "Q", "STREET": "6621 Fannin St", "CITY": "Houston", "COUNTY": "Harris", "ADDRESS": "6621 Fannin St, Houston, TX, 77030", "ZIP": "77030", "LATITUDE": 29.704584, "LONGITUDE": -95.40466, "PFIZER_AVAILABLE": 2222, "MODERNA_AVAILABLE": 352, "VACCINES_AVAILABLE": 2574, "Total_Shipped": 37900, "PublicPhone": "(832) 824-1000", "WEBSITE": "https://www.texaschildrens.org/covidvaccine", "RemoveRecord": null, "LAST_UPDATE_VAC": "02/25/2021      ", "LAST_UPDATE_TIME_VAC": "07:57:40        ", "marker-symbol": "circle-15", "marker-color": "#228B22"}}, {"type": "Feature", "geometry": {"type": "Point", "coordinates": [-102.373158, 31.845315]}, "properties": {"OBJECTID": 1339, "NAME": "Medical Center Hospital - Odessa", "TYPE": "Hospital", "TSA": "J", "STREET": "500 W 4th St", "CITY": " Odessa", "COUNTY": "Ector", "ADDRESS": "500 W 4th St, Odessa, TX, 79761", "ZIP": "79761", "LATITUDE": 31.845315, "LONGITUDE": -102.373158, "PFIZER_AVAILABLE": 3413, "MODERNA_AVAILABLE": 0, "VACCINES_AVAILABLE": 3413, "Total_Shipped": 42830, "PublicPhone": null, "WEBSITE": null, "RemoveRecord": null, "LAST_UPDATE_VAC": "02/25/2021      ", "LAST_UPDATE_TIME_VAC": "17:31:13        ", "marker-symbol": "circle-15", "marker-color": "#228B22"}}, {"type": "Feature", "geometry": {"type": "Point", "coordinates": [-95.6739674, 29.9466955]}, "properties": {"OBJECTID": 1340, "NAME": "Texas Wellmed Clinic Pllc", "TYPE": "Medical Practice", "TSA": "Q", "STREET": "12246 Queenston Blvd", "CITY": "Houston", "COUNTY": "Harris", "ADDRESS": "12246 Queenston Blvd STE A", "ZIP": "77095", "LATITUDE": 29.9466955, "LONGITUDE": -95.6739674, "PFIZER_AVAILABLE": 0, "MODERNA_AVAILABLE": 100, "VACCINES_AVAILABLE": 100, "Total_Shipped": 400, "PublicPhone": "(281) 246-4668", "WEBSITE": null, "RemoveRecord": null, "LAST_UPDATE_VAC": "02/25/2021      ", "LAST_UPDATE_TIME_VAC": "17:56:15        ", "marker-symbol": "circle-15", "marker-color": "#228B22"}}, {"type": "Feature", "geometry": {"type": "Point", "coordinates": [-102.653492485477, 32.7195339941978]}, "properties": {"OBJECTID": 1379, "NAME": "Dept of Public Health - South Plains / Seminole", "TYPE": "Other", "TSA": "B", "STREET": "704 Hobbs Highway", "CITY": "Seminole", "COUNTY": "Gaines", "ADDRESS": "704 Hobbs Highway", "ZIP": "79360", "LATITUDE": 32.7195339941978, "LONGITUDE": -102.653492485477, "PFIZER_AVAILABLE": 0, "MODERNA_AVAILABLE": 150, "VACCINES_AVAILABLE": 150, "Total_Shipped": 700, "PublicPhone": null, "WEBSITE": null, "RemoveRecord": null, "LAST_UPDATE_VAC": "02/25/2021      ", "LAST_UPDATE_TIME_VAC": "15:24:46        ", "marker-symbol": "circle-15", "marker-color": "#228B22"}}, {"type": "Feature", "geometry": {"type": "Point", "coordinates": [-99.334246, 31.110567]}, "properties": {"OBJECTID": 1383, "NAME": "Frontera Healthcare-Brady", "TYPE": "Other", "TSA": null, "STREET": null, "CITY": "Brady", "COUNTY": "Mcculloch", "ADDRESS": "2205 S Bridge St Ste 300", "ZIP": "76825", "LATITUDE": 31.110567, "LONGITUDE": -99.334246, "PFIZER_AVAILABLE": 0, "MODERNA_AVAILABLE": 80, "VACCINES_AVAILABLE": 80, "Total_Shipped": 400, "PublicPhone": null, "WEBSITE": null, "RemoveRecord": null, "LAST_UPDATE_VAC": "02/24/2021      ", "LAST_UPDATE_TIME_VAC": "17:59:49        ", "marker-symbol": "circle-15", "marker-color": "#228B22"}}, {"type": "Feature", "geometry": {"type": "Point", "coordinates": [-97.3258634644214, 32.732359521432]}, "properties": {"OBJECTID": 1386, "NAME": "Dept of Public Health - Tarrant County / La Gran Plaza Health Center", "TYPE": "Local Health Department", "TSA": null, "STREET": "1101 S Main St", "CITY": "Fort Worth", "COUNTY": "Tarrant", "ADDRESS": "1101 S Main St", "ZIP": "76104", "LATITUDE": 32.732359521432, "LONGITUDE": -97.3258634644214, "PFIZER_AVAILABLE": 0, "MODERNA_AVAILABLE": 100, "VACCINES_AVAILABLE": 100, "Total_Shipped": 600, "PublicPhone": "(817) 920-5752", "WEBSITE": "http://access.tarrantcounty.com/en/public-health/public-health-locations/lagran-plaza-mall-public-health-center.html", "RemoveRecord": null, "LAST_UPDATE_VAC": "02/25/2021      ", "LAST_UPDATE_TIME_VAC": "08:57:29        ", "marker-symbol": "circle-15", "marker-color": "#228B22"}}, {"type": "Feature", "geometry": {"type": "Point", "coordinates": [-99.787372, 30.908626]}, "properties": {"OBJECTID": 1387, "NAME": "Frontera Clinicmenard", "TYPE": "Other", "TSA": null, "STREET": "119 S Ellis", "CITY": "Menard", "COUNTY": "Menard", "ADDRESS": "119 S Ellis", "ZIP": "76859", "LATITUDE": 30.908626, "LONGITUDE": -99.787372, "PFIZER_AVAILABLE": 0, "MODERNA_AVAILABLE": 10, "VACCINES_AVAILABLE": 10, "Total_Shipped": 200, "PublicPhone": null, "WEBSITE": null, "RemoveRecord": null, "LAST_UPDATE_VAC": "02/25/2021      ", "LAST_UPDATE_TIME_VAC": "17:33:43        ", "marker-symbol": "circle-15", "marker-color": "#228B22"}}, {"type": "Feature", "geometry": {"type": "Point", "coordinates": [-94.314720823576, 30.3671804863807]}, "properties": {"OBJECTID": 1389, "NAME": "Dept of Public Health - Hardin County / Kountze", "TYPE": "Local Health Department", "TSA": null, "STREET": "1135 Redwood St, Kountze, TX 77625", "CITY": "Kountze", "COUNTY": "Hardin", "ADDRESS": "1135 Redwood", "ZIP": "77625", "LATITUDE": 30.3671804863807, "LONGITUDE": -94.314720823576, "PFIZER_AVAILABLE": 0, "MODERNA_AVAILABLE": 3580, "VACCINES_AVAILABLE": 3580, "Total_Shipped": 2800, "PublicPhone": "(409) 246-5188", "WEBSITE": "http://www.co.hardin.tx.us/", "RemoveRecord": null, "LAST_UPDATE_VAC": "02/25/2021      ", "LAST_UPDATE_TIME_VAC": "07:46:36        ", "marker-symbol": "circle-15", "marker-color": "#228B22"}}, {"type": "Feature", "geometry": {"type": "Point", "coordinates": [-95.3412740310678, 29.8370686670095]}, "properties": {"OBJECTID": 1407, "NAME": "Dept of Public Health - City of Houston / Northside Health Center", "TYPE": "Local Health Department", "TSA": null, "STREET": "8504 Schuller", "CITY": "Houston", "COUNTY": "Harris", "ADDRESS": "8504 Schuller", "ZIP": "77093", "LATITUDE": 29.8370686670095, "LONGITUDE": -95.3412740310678, "PFIZER_AVAILABLE": 0, "MODERNA_AVAILABLE": 1420, "VACCINES_AVAILABLE": 1420, "Total_Shipped": 3100, "PublicPhone": "(832) 395-9100", "WEBSITE": null, "RemoveRecord": null, "LAST_UPDATE_VAC": "02/25/2021      ", "LAST_UPDATE_TIME_VAC": "06:32:38        ", "marker-symbol": "circle-15", "marker-color": "#228B22"}}, {"type": "Feature", "geometry": {"type": "Point", "coordinates": [-97.826279096786, 30.5192041394014]}, "properties": {"OBJECTID": 1411, "NAME": "Dept of Public Health - Williamson County / Cedar Park", "TYPE": "Local Health Department", "TSA": null, "STREET": "350 Discovery Blvd Ste 102", "CITY": "Cedar Park", "COUNTY": "Williamson", "ADDRESS": "350 Discovery Blvd Ste 102", "ZIP": "78613", "LATITUDE": 30.5192041394014, "LONGITUDE": -97.826279096786, "PFIZER_AVAILABLE": 0, "MODERNA_AVAILABLE": 400, "VACCINES_AVAILABLE": 400, "Total_Shipped": 800, "PublicPhone": "(512) 260-4240", "WEBSITE": "http://www.wcchd.org/", "RemoveRecord": null, "LAST_UPDATE_VAC": "02/25/2021      ", "LAST_UPDATE_TIME_VAC": "13:10:48        ", "marker-symbol": "circle-15", "marker-color": "#228B22"}}, {"type": "Feature", "geometry": {"type": "Point", "coordinates": [-102.549476252193, 32.3198888741061]}, "properties": {"OBJECTID": 1419, "NAME": "Dept of Public Health - Andrews County / Andrews", "TYPE": "Local Health Department", "TSA": null, "STREET": "208 Nw 2nd St", "CITY": "Andrews", "COUNTY": "Andrews", "ADDRESS": "208 Nw 2nd St", "ZIP": "79714", "LATITUDE": 32.3198888741061, "LONGITUDE": -102.549476252193, "PFIZER_AVAILABLE": 0, "MODERNA_AVAILABLE": 200, "VACCINES_AVAILABLE": 200, "Total_Shipped": 2200, "PublicPhone": "(432) 524-1434", "WEBSITE": null, "RemoveRecord": null, "LAST_UPDATE_VAC": "02/25/2021      ", "LAST_UPDATE_TIME_VAC": "07:48:31        ", "marker-symbol": "circle-15", "marker-color": "#228B22"}}, {"type": "Feature", "geometry": {"type": "Point", "coordinates": [-98.1236067405545, 29.7150342211664]}, "properties": {"OBJECTID": 1423, "NAME": "CHRISTUS SANTA ROSA NEW BRAUNFELS", "TYPE": "Hospital", "TSA": "P", "STREET": "600 North Union Ave", "CITY": "New Braunfels", "COUNTY": "Comal", "ADDRESS": "600 North Union Ave", "ZIP": "78130", "LATITUDE": 29.7150342211664, "LONGITUDE": -98.1236067405545, "PFIZER_AVAILABLE": 0, "MODERNA_AVAILABLE": 100, "VACCINES_AVAILABLE": 100, "Total_Shipped": 1200, "PublicPhone": "(830) 606-9111", "WEBSITE": "https://www.christushealth.org/santa-rosa/new-braunfels?utm_source=organic&utm_medium=GMB&utm_campaign=website&y_source=1_MTUzNzY2MDYtNzE1LWxvY2F0aW9uLmdvb2dsZV93ZWJzaXRlX292ZXJyaWRl", "RemoveRecord": null, "LAST_UPDATE_VAC": "02/25/2021      ", "LAST_UPDATE_TIME_VAC": "08:02:43        ", "marker-symbol": "circle-15", "marker-color": "#228B22"}}, {"type": "Feature", "geometry": {"type": "Point", "coordinates": [-96.575961, 33.422081]}, "properties": {"OBJECTID": 1426, "NAME": "City Drug Co", "TYPE": "Other", "TSA": null, "STREET": "232 E JEFFERSON ST", "CITY": "Van Alstyne", "COUNTY": "GRAYSON", "ADDRESS": "232 E JEFFERSON ST", "ZIP": "75495", "LATITUDE": 33.422081, "LONGITUDE": -96.575961, "PFIZER_AVAILABLE": 0, "MODERNA_AVAILABLE": 48, "VACCINES_AVAILABLE": 48, "Total_Shipped": 100, "PublicPhone": null, "WEBSITE": null, "RemoveRecord": null, "LAST_UPDATE_VAC": "02/25/2021      ", "LAST_UPDATE_TIME_VAC": "08:23:15        ", "marker-symbol": "circle-15", "marker-color": "#228B22"}}, {"type": "Feature", "geometry": {"type": "Point", "coordinates": [-95.277643, 32.314985]}, "properties": {"OBJECTID": 1452, "NAME": "CHRISTUS MOTHER FRANCES - REHAB HOSPITAL", "TYPE": "Hospital", "TSA": "G", "STREET": "3131 Troup Highway", "CITY": " Tyler", "COUNTY": "Smith", "ADDRESS": "3131 Troup Highway, Tyler, TX, 75701", "ZIP": "75701", "LATITUDE": 32.314985, "LONGITUDE": -95.277643, "PFIZER_AVAILABLE": 0, "MODERNA_AVAILABLE": 20, "VACCINES_AVAILABLE": 20, "Total_Shipped": 200, "PublicPhone": "(903) 510-7000", "WEBSITE": null, "RemoveRecord": null, "LAST_UPDATE_VAC": "02/25/2021      ", "LAST_UPDATE_TIME_VAC": "09:13:40        ", "marker-symbol": "circle-15", "marker-color": "#228B22"}}, {"type": "Feature", "geometry": {"type": "Point", "coordinates": [-96.0781936, 30.3944628]}, "properties": {"OBJECTID": 1453, "NAME": "CHI ST JOSEPH HEALTH GRIMES HOSPITAL", "TYPE": "Hospital", "TSA": "N", "STREET": "210 S JUDSON ST", "CITY": "NAVASOTA", "COUNTY": "GRIMES", "ADDRESS": "210 S JUDSON ST., NAVASOTA, TX 77868", "ZIP": "77868", "LATITUDE": 30.3944628, "LONGITUDE": -96.0781936, "PFIZER_AVAILABLE": 0, "MODERNA_AVAILABLE": 100, "VACCINES_AVAILABLE": 100, "Total_Shipped": 200, "PublicPhone": "(936) 825-6585", "WEBSITE": "https://stjoseph.stlukeshealth.org/locations/chi-st-joseph-health-grimes-hospital?utm_source=LocalSearch&utm_medium=Facility&utm_campaign=CHITexas&utm_term=CHIStJosephHealthGrimesHospital&y_source=1_MTUxNjI3MzAtNzE1LWxvY2F0aW9uLndlYnNpdGU%3D", "RemoveRecord": null, "LAST_UPDATE_VAC": "02/25/2021      ", "LAST_UPDATE_TIME_VAC": "09:16:53        ", "marker-symbol": "circle-15", "marker-color": "#228B22"}}, {"type": "Feature", "geometry": {"type": "Point", "coordinates": [-96.35028881, 30.66115361]}, "properties": {"OBJECTID": 1454, "NAME": "Chi St Joseph Health Rehabilitation Hos", "TYPE": "Other", "TSA": "N", "STREET": "1600 Joseph Dr.", "CITY": "Bryan", "COUNTY": "Brazos", "ADDRESS": "1600 Joseph Dr.", "ZIP": "77802", "LATITUDE": 30.66115361, "LONGITUDE": -96.35028881, "PFIZER_AVAILABLE": 0, "MODERNA_AVAILABLE": 45, "VACCINES_AVAILABLE": 45, "Total_Shipped": 200, "PublicPhone": "979-213-4300", "WEBSITE": null, "RemoveRecord": null, "LAST_UPDATE_VAC": "02/24/2021      ", "LAST_UPDATE_TIME_VAC": "17:01:06        ", "marker-symbol": "circle-15", "marker-color": "#228B22"}}, {"type": "Feature", "geometry": {"type": "Point", "coordinates": [-96.59638, 30.8824004]}, "properties": {"OBJECTID": 1460, "NAME": "Wilson Drug", "TYPE": "Pharmacy", "TSA": null, "STREET": "4th St", "CITY": "Hearne", "COUNTY": "Robertson", "ADDRESS": "118 W 4th St", "ZIP": "77859", "LATITUDE": 30.8824004, "LONGITUDE": -96.59638, "PFIZER_AVAILABLE": 0, "MODERNA_AVAILABLE": 60, "VACCINES_AVAILABLE": 60, "Total_Shipped": 100, "PublicPhone": "(979) 279-2173", "WEBSITE": null, "RemoveRecord": null, "LAST_UPDATE_VAC": "02/25/2021      ", "LAST_UPDATE_TIME_VAC": "09:47:09        ", "marker-symbol": "circle-15", "marker-color": "#228B22"}}, {"type": "Feature", "geometry": {"type": "Point", "coordinates": [-95.2007687907671, 29.925564285333]}, "properties": {"OBJECTID": 1482, "NAME": "Memorial Hermann Medical Group Summer Creek", "TYPE": "Medical Practice", "TSA": null, "STREET": "14201 E Sam Houston Pkwy N", "CITY": "Houston", "COUNTY": "Harris", "ADDRESS": "14201 E Sam Houston Pkwy N", "ZIP": "77044", "LATITUDE": 29.925564285333, "LONGITUDE": -95.2007687907671, "PFIZER_AVAILABLE": 0, "MODERNA_AVAILABLE": 1300, "VACCINES_AVAILABLE": 1300, "Total_Shipped": 3000, "PublicPhone": "(281) 436-8888", "WEBSITE": "https://www.memorialhermann.org/locations/convenient-care-summer-creek", "RemoveRecord": null, "LAST_UPDATE_VAC": "01/14/2021      ", "LAST_UPDATE_TIME_VAC": "17:04:43        ", "marker-symbol": "circle-15", "marker-color": "#228B22"}}, {"type": "Feature", "geometry": {"type": "Point", "coordinates": [-106.350195261813, 31.7560467132164]}, "properties": {"OBJECTID": 1516, "NAME": "DEL SOL MEDICAL CENTER", "TYPE": "Hospital", "TSA": "I", "STREET": "10301 Gateway Blvd W", "CITY": "El Paso", "COUNTY": "El Paso", "ADDRESS": "10301 Gateway Blvd W", "ZIP": "79925", "LATITUDE": 31.7560467132164, "LONGITUDE": -106.350195261813, "PFIZER_AVAILABLE": 0, "MODERNA_AVAILABLE": 260, "VACCINES_AVAILABLE": 260, "Total_Shipped": 4550, "PublicPhone": "915.263.6696", "WEBSITE": "https://laspalmasdelsolhealthcare.com/covid-19/covid-19-vaccine-information/", "RemoveRecord": null, "LAST_UPDATE_VAC": "02/25/2021      ", "LAST_UPDATE_TIME_VAC": "08:34:38        ", "marker-symbol": "circle-15", "marker-color": "#228B22"}}, {"type": "Feature", "geometry": {"type": "Point", "coordinates": [-97.71439, 30.518975]}, "properties": {"OBJECTID": 1520, "NAME": "ST. DAVID'S ROUND ROCK MC", "TYPE": "Hospital", "TSA": "O", "STREET": "2400 Round Rock Ave", "CITY": "Round Rock", "COUNTY": "Williamson", "ADDRESS": "2400 Round Rock Avenue, Round Rock, TX, 78681", "ZIP": "78681", "LATITUDE": 30.518975, "LONGITUDE": -97.71439, "PFIZER_AVAILABLE": 361, "MODERNA_AVAILABLE": 0, "VACCINES_AVAILABLE": 361, "Total_Shipped": 3900, "PublicPhone": "512.816.0004", "WEBSITE": "https://stdavids.com/covid-19/covid-19-vaccine-information/", "RemoveRecord": null, "LAST_UPDATE_VAC": "02/25/2021      ", "LAST_UPDATE_TIME_VAC": "21:28:23        ", "marker-symbol": "circle-15", "marker-color": "#228B22"}}, {"type": "Feature", "geometry": {"type": "Point", "coordinates": [-97.73856, 30.292424]}, "properties": {"OBJECTID": 1521, "NAME": "ST. DAVID'S MC", "TYPE": "Hospital", "TSA": "O", "STREET": "919 E 32nd St", "CITY": "Austin", "COUNTY": "Travis", "ADDRESS": "919 E 32nd St, Austin, TX, 78705", "ZIP": "78705", "LATITUDE": 30.292424, "LONGITUDE": -97.73856, "PFIZER_AVAILABLE": 234, "MODERNA_AVAILABLE": 0, "VACCINES_AVAILABLE": 234, "Total_Shipped": 8900, "PublicPhone": "512.816.0004", "WEBSITE": "https://stdavids.com/covid-19/covid-19-vaccine-information/", "RemoveRecord": null, "LAST_UPDATE_VAC": "02/25/2021      ", "LAST_UPDATE_TIME_VAC": "07:59:44        ", "marker-symbol": "circle-15", "marker-color": "#228B22"}}, {"type": "Feature", "geometry": {"type": "Point", "coordinates": [-97.7744468291171, 30.2272731113373]}, "properties": {"OBJECTID": 1522, "NAME": "ST. DAVID'S SOUTH AUSTIN Medical Center", "TYPE": "Hospital", "TSA": "O", "STREET": "901 W Ben White Blvd", "CITY": "Austin", "COUNTY": "Travis", "ADDRESS": "901 W Ben White Blvd", "ZIP": "78704", "LATITUDE": 30.2272731113373, "LONGITUDE": -97.7744468291171, "PFIZER_AVAILABLE": 10, "MODERNA_AVAILABLE": 0, "VACCINES_AVAILABLE": 10, "Total_Shipped": 5100, "PublicPhone": "512.816.0004", "WEBSITE": "https://stdavids.com/covid-19/covid-19-vaccine-information/", "RemoveRecord": null, "LAST_UPDATE_VAC": "02/25/2021      ", "LAST_UPDATE_TIME_VAC": "09:51:05        ", "marker-symbol": "circle-15", "marker-color": "#228B22"}}, {"type": "Feature", "geometry": {"type": "Point", "coordinates": [-102.349230322218, 31.3898706582327]}, "properties": {"OBJECTID": 1538, "NAME": "CRANE  MEMORIAL HOSPITAL", "TYPE": "Medical Practice", "TSA": "J", "STREET": "1310 S Alford St", "CITY": "Crane", "COUNTY": "Crane", "ADDRESS": "1310 S Alford St", "ZIP": "79731", "LATITUDE": 31.3898706582327, "LONGITUDE": -102.349230322218, "PFIZER_AVAILABLE": 0, "MODERNA_AVAILABLE": 200, "VACCINES_AVAILABLE": 200, "Total_Shipped": 2350, "PublicPhone": "(432) 558-3758", "WEBSITE": "http://www.cranememorial.org/", "RemoveRecord": null, "LAST_UPDATE_VAC": "02/24/2021      ", "LAST_UPDATE_TIME_VAC": "10:13:41        ", "marker-symbol": "circle-15", "marker-color": "#228B22"}}, {"type": "Feature", "geometry": {"type": "Point", "coordinates": [-102.546054424041, 32.3370434447831]}, "properties": {"OBJECTID": 1539, "NAME": "PERMIAN REGIONAL MEDICAL CENTER", "TYPE": "Hospital", "TSA": "J", "STREET": "720 Hospital Dr", "CITY": "Andrews", "COUNTY": "Andrews", "ADDRESS": "720 Hospital Dr", "ZIP": "79714", "LATITUDE": 32.3370434447831, "LONGITUDE": -102.546054424041, "PFIZER_AVAILABLE": 408, "MODERNA_AVAILABLE": 0, "VACCINES_AVAILABLE": 408, "Total_Shipped": 1000, "PublicPhone": "(432) 523-2200", "WEBSITE": "http://permianregional.com/", "RemoveRecord": null, "LAST_UPDATE_VAC": "02/25/2021      ", "LAST_UPDATE_TIME_VAC": "19:01:57        ", "marker-symbol": "circle-15", "marker-color": "#228B22"}}, {"type": "Feature", "geometry": {"type": "Point", "coordinates": [-101.490588999116, 32.2352099848144]}, "properties": {"OBJECTID": 1540, "NAME": "SCENIC MOUNTAIN MEDICAL CENTER", "TYPE": "Hospital", "TSA": "J", "STREET": "1601 W 11th Pl", "CITY": "Big Spring", "COUNTY": "Howard", "ADDRESS": "1601 W 11th Pl", "ZIP": "79720", "LATITUDE": 32.2352099848144, "LONGITUDE": -101.490588999116, "PFIZER_AVAILABLE": 0, "MODERNA_AVAILABLE": 400, "VACCINES_AVAILABLE": 400, "Total_Shipped": 800, "PublicPhone": "(432) 263-1211", "WEBSITE": "https://www.scenicmountainmedical.org/?utm_source=local-listing&utm_medium=organic&utm_campaign=website-link", "RemoveRecord": null, "LAST_UPDATE_VAC": "02/25/2021      ", "LAST_UPDATE_TIME_VAC": "17:44:24        ", "marker-symbol": "circle-15", "marker-color": "#228B22"}}, {"type": "Feature", "geometry": {"type": "Point", "coordinates": [-98.3127574614777, 26.1963906866482]}, "properties": {"OBJECTID": 1541, "NAME": "MISSION REGIONAL MEDICAL CENTER", "TYPE": "Pharmacy", "TSA": "V", "STREET": "900 S Bryan Rd", "CITY": "Mission", "COUNTY": "Hidalgo", "ADDRESS": "900 S Bryan Rd", "ZIP": "78572", "LATITUDE": 26.1963906866482, "LONGITUDE": -98.3127574614777, "PFIZER_AVAILABLE": 0, "MODERNA_AVAILABLE": 264, "VACCINES_AVAILABLE": 264, "Total_Shipped": 4900, "PublicPhone": "(956) 323-9000", "WEBSITE": "http://missionrmc.org/", "RemoveRecord": null, "LAST_UPDATE_VAC": "02/25/2021      ", "LAST_UPDATE_TIME_VAC": "07:42:05        ", "marker-symbol": "circle-15", "marker-color": "#228B22"}}, {"type": "Feature", "geometry": {"type": "Point", "coordinates": [-98.8559460132842, 26.3875106681382]}, "properties": {"OBJECTID": 1542, "NAME": "STARR COUNTY MEMORIAL HOSPITAL", "TYPE": "Hospital", "TSA": "V", "STREET": "128 N Fm 3167", "CITY": "Rio Grande City", "COUNTY": "Starr", "ADDRESS": "128 N Fm 3167", "ZIP": "78582", "LATITUDE": 26.3875106681382, "LONGITUDE": -98.8559460132842, "PFIZER_AVAILABLE": 0, "MODERNA_AVAILABLE": 300, "VACCINES_AVAILABLE": 300, "Total_Shipped": 3600, "PublicPhone": null, "WEBSITE": null, "RemoveRecord": null, "LAST_UPDATE_VAC": "02/25/2021      ", "LAST_UPDATE_TIME_VAC": "20:20:47        ", "marker-symbol": "circle-15", "marker-color": "#228B22"}}, {"type": "Feature", "geometry": {"type": "Point", "coordinates": [-95.4086209625977, 29.8472426085954]}, "properties": {"OBJECTID": 1545, "NAME": "UNITED MEMORIAL MEDICAL CENTER", "TYPE": "Hospital", "TSA": "Q", "STREET": "510 West Tidwell Road", "CITY": "Houston", "COUNTY": "Harris", "ADDRESS": "510 West Tidwell Road", "ZIP": "77091", "LATITUDE": 29.8472426085954, "LONGITUDE": -95.4086209625977, "PFIZER_AVAILABLE": 2340, "MODERNA_AVAILABLE": 0, "VACCINES_AVAILABLE": 2340, "Total_Shipped": 4440, "PublicPhone": "(281) 618-8500", "WEBSITE": "https://ummc.care/", "RemoveRecord": null, "LAST_UPDATE_VAC": "02/25/2021      ", "LAST_UPDATE_TIME_VAC": "18:07:12        ", "marker-symbol": "circle-15", "marker-color": "#228B22"}}, {"type": "Feature", "geometry": {"type": "Point", "coordinates": [-93.9886543964915, 29.933825070008]}, "properties": {"OBJECTID": 1546, "NAME": "MEDICAL CENTER OF SOUTHEAST TEXAS", "TYPE": "Hospital", "TSA": "R", "STREET": "2555 Jimmy Johnson Blvd", "CITY": "Port Arthur", "COUNTY": "Jefferson", "ADDRESS": "2555 Jimmy Johnson Blvd", "ZIP": "77640", "LATITUDE": 29.933825070008, "LONGITUDE": -93.9886543964915, "PFIZER_AVAILABLE": 0, "MODERNA_AVAILABLE": 110, "VACCINES_AVAILABLE": 110, "Total_Shipped": 3550, "PublicPhone": "(409) 724-7389", "WEBSITE": "https://www.medicalcentersetexas.org/", "RemoveRecord": null, "LAST_UPDATE_VAC": "02/23/2021      ", "LAST_UPDATE_TIME_VAC": "14:19:39        ", "marker-symbol": "circle-15", "marker-color": "#228B22"}}, {"type": "Feature", "geometry": {"type": "Point", "coordinates": [-99.53371, 27.648832]}, "properties": {"OBJECTID": 1549, "NAME": "DOCTORS HOSPITAL OF LAREDO", "TYPE": "Hospital", "TSA": "T", "STREET": "10700 Mcpherson Rd", "CITY": "Laredo", "COUNTY": "Webb", "ADDRESS": "10700 McPherson, Laredo, TX, 78045", "ZIP": "78045", "LATITUDE": 27.648832, "LONGITUDE": -99.53371, "PFIZER_AVAILABLE": 0, "MODERNA_AVAILABLE": 80, "VACCINES_AVAILABLE": 80, "Total_Shipped": 2000, "PublicPhone": "(956) 523-2000", "WEBSITE": "https://www.doctorshosplaredo.com/?utm_source=google-business&utm_medium=organic&utm_campaign=homepage", "RemoveRecord": null, "LAST_UPDATE_VAC": "02/23/2021      ", "LAST_UPDATE_TIME_VAC": "14:02:21        ", "marker-symbol": "circle-15", "marker-color": "#228B22"}}, {"type": "Feature", "geometry": {"type": "Point", "coordinates": [-99.959500367135, 31.9498055413451]}, "properties": {"OBJECTID": 1559, "NAME": "NORTH RUNNELS HOSPITAL", "TYPE": "Hospital", "TSA": "K", "STREET": "7821 Hwy 153", "CITY": "Winters", "COUNTY": "Runnels", "ADDRESS": "7821 Hwy 153", "ZIP": "79567", "LATITUDE": 31.9498055413451, "LONGITUDE": -99.959500367135, "PFIZER_AVAILABLE": 0, "MODERNA_AVAILABLE": 200, "VACCINES_AVAILABLE": 200, "Total_Shipped": 800, "PublicPhone": "(325) 754-4553", "WEBSITE": "http://www.northrunnelshospital.com/", "RemoveRecord": null, "LAST_UPDATE_VAC": "02/25/2021      ", "LAST_UPDATE_TIME_VAC": "07:54:16        ", "marker-symbol": "circle-15", "marker-color": "#228B22"}}, {"type": "Feature", "geometry": {"type": "Point", "coordinates": [-95.9919140003584, 28.9803329990154]}, "properties": {"OBJECTID": 1573, "NAME": "MATAGORDA REGIONAL MEDICAL CENTER", "TYPE": "Hospital", "TSA": "Q", "STREET": "104 7th Street", "CITY": "Bay City", "COUNTY": "Matagorda", "ADDRESS": "104 7th Street", "ZIP": "77414", "LATITUDE": 28.9803329990154, "LONGITUDE": -95.9919140003584, "PFIZER_AVAILABLE": 0, "MODERNA_AVAILABLE": 300, "VACCINES_AVAILABLE": 300, "Total_Shipped": 1200, "PublicPhone": "(979) 245-6383", "WEBSITE": "http://www.matagordaregional.org/", "RemoveRecord": null, "LAST_UPDATE_VAC": "02/25/2021      ", "LAST_UPDATE_TIME_VAC": "08:28:22        ", "marker-symbol": "circle-15", "marker-color": "#228B22"}}, {"type": "Feature", "geometry": {"type": "Point", "coordinates": [-94.0469314223375, 33.4279649906924]}, "properties": {"OBJECTID": 1580, "NAME": "WADLEY REGIONAL MED CENTER", "TYPE": "Hospital", "TSA": "F", "STREET": "1000 Pine", "CITY": "Texarkana", "COUNTY": "Bowie", "ADDRESS": "1000 Pine", "ZIP": "75501", "LATITUDE": 33.4279649906924, "LONGITUDE": -94.0469314223375, "PFIZER_AVAILABLE": 0, "MODERNA_AVAILABLE": 200, "VACCINES_AVAILABLE": 200, "Total_Shipped": 2750, "PublicPhone": "(903) 798-8000", "WEBSITE": "https://www.wadleyhealth.org/", "RemoveRecord": null, "LAST_UPDATE_VAC": "02/25/2021      ", "LAST_UPDATE_TIME_VAC": "16:02:04        ", "marker-symbol": "circle-15", "marker-color": "#228B22"}}, {"type": "Feature", "geometry": {"type": "Point", "coordinates": [-97.5938971981377, 33.2163056327105]}, "properties": {"OBJECTID": 1584, "NAME": "WISE HEALTH SYSTEM - DECATUR", "TYPE": "Hospital", "TSA": "E", "STREET": "609 Medical Center Dr", "CITY": "Decatur", "COUNTY": "Wise", "ADDRESS": "609 Medical Center Dr", "ZIP": "76234", "LATITUDE": 33.2163056327105, "LONGITUDE": -97.5938971981377, "PFIZER_AVAILABLE": 0, "MODERNA_AVAILABLE": 1100, "VACCINES_AVAILABLE": 1100, "Total_Shipped": 7620, "PublicPhone": "(972) 506-9058", "WEBSITE": "https://www.wisehealthsystem.com/", "RemoveRecord": null, "LAST_UPDATE_VAC": "02/25/2021      ", "LAST_UPDATE_TIME_VAC": "07:20:33        ", "marker-symbol": "circle-15", "marker-color": "#228B22"}}, {"type": "Feature", "geometry": {"type": "Point", "coordinates": [-97.2794304030387, 28.3066663231266]}, "properties": {"OBJECTID": 1591, "NAME": "REFUGIO COUNTY MEMORIAL HOSPITAL", "TYPE": "Hospital", "TSA": "U", "STREET": "107 Swift St", "CITY": "Refugio", "COUNTY": "Refugio", "ADDRESS": "107 Swift St", "ZIP": "78377", "LATITUDE": 28.3066663231266, "LONGITUDE": -97.2794304030387, "PFIZER_AVAILABLE": 0, "MODERNA_AVAILABLE": 200, "VACCINES_AVAILABLE": 200, "Total_Shipped": 600, "PublicPhone": "(361) 526-2321", "WEBSITE": "http://www.refugiohospital.com/", "RemoveRecord": null, "LAST_UPDATE_VAC": "02/25/2021      ", "LAST_UPDATE_TIME_VAC": "05:33:24        ", "marker-symbol": "circle-15", "marker-color": "#228B22"}}, {"type": "Feature", "geometry": {"type": "Point", "coordinates": [-94.1035346659383, 31.5314143484139]}, "properties": {"OBJECTID": 1593, "NAME": "CHI ST.LUKE'S HEALTH MEM - SAN AUGUSTINE", "TYPE": "Pharmacy", "TSA": "H", "STREET": "511 East Hospital Street", "CITY": "San Augustine", "COUNTY": "San Augustine", "ADDRESS": "511 East Hospital Street", "ZIP": "75972", "LATITUDE": 31.5314143484139, "LONGITUDE": -94.1035346659383, "PFIZER_AVAILABLE": 0, "MODERNA_AVAILABLE": 30, "VACCINES_AVAILABLE": 30, "Total_Shipped": 200, "PublicPhone": "(936) 275-3446", "WEBSITE": "https://www.chistlukeshealthmemorial.org/centers/san-augustine", "RemoveRecord": null, "LAST_UPDATE_VAC": "02/25/2021      ", "LAST_UPDATE_TIME_VAC": "07:37:39        ", "marker-symbol": "circle-15", "marker-color": "#228B22"}}, {"type": "Feature", "geometry": {"type": "Point", "coordinates": [-96.7164547, 30.5202339]}, "properties": {"OBJECTID": 1596, "NAME": "BURLESON ST. JOSEPH, CALDWELL", "TYPE": "Hospital", "TSA": "N", "STREET": "1101 Woodson Dr", "CITY": "CALDWELL", "COUNTY": "Burleson", "ADDRESS": "1101 Woodson Dr, Caldwell, TX 77836", "ZIP": "77836", "LATITUDE": 30.5202339, "LONGITUDE": -96.7164547, "PFIZER_AVAILABLE": 0, "MODERNA_AVAILABLE": 100, "VACCINES_AVAILABLE": 100, "Total_Shipped": 500, "PublicPhone": "(979) 567-3245", "WEBSITE": "https://stjoseph.stlukeshealth.org/locations/chi-st-joseph-health-burleson-hospital?utm_source=LocalSearch&utm_medium=Facility&utm_campaign=CHITexas&utm_term=CHIStJosephHealthBurlesonHospital&y_source=1_MTUxNjI3NjMtNzE1LWxvY2F0aW9uLndlYnNpdGU%3D", "RemoveRecord": null, "LAST_UPDATE_VAC": "02/25/2021      ", "LAST_UPDATE_TIME_VAC": "09:14:56        ", "marker-symbol": "circle-15", "marker-color": "#228B22"}}, {"type": "Feature", "geometry": {"type": "Point", "coordinates": [-100.43599, 32.834]}, "properties": {"OBJECTID": 1599, "NAME": "FISHER CO. HOSPITAL DISTRICT", "TYPE": "Hospital", "TSA": "D", "STREET": "774 TX-70", "CITY": "ROTAN", "COUNTY": "Fisher", "ADDRESS": "774 TX-70", "ZIP": "79546", "LATITUDE": 32.834, "LONGITUDE": -100.43599, "PFIZER_AVAILABLE": 0, "MODERNA_AVAILABLE": 360, "VACCINES_AVAILABLE": 360, "Total_Shipped": 800, "PublicPhone": "(325) 735-2256", "WEBSITE": "http://www.fishercountyhospital.com/", "RemoveRecord": null, "LAST_UPDATE_VAC": "02/25/2021      ", "LAST_UPDATE_TIME_VAC": "07:50:48        ", "marker-symbol": "circle-15", "marker-color": "#228B22"}}, {"type": "Feature", "geometry": {"type": "Point", "coordinates": [-100.878350314274, 32.408130496152]}, "properties": {"OBJECTID": 1600, "NAME": "MITCHELL CO. HOSPITAL", "TYPE": "Community Clinic", "TSA": "D", "STREET": "997 W I20", "CITY": "Colorado City", "COUNTY": "Mitchell", "ADDRESS": "997 W I20", "ZIP": "79512", "LATITUDE": 32.408130496152, "LONGITUDE": -100.878350314274, "PFIZER_AVAILABLE": 0, "MODERNA_AVAILABLE": 300, "VACCINES_AVAILABLE": 300, "Total_Shipped": 900, "PublicPhone": "(325) 728-3431", "WEBSITE": "https://www.mitchellcountyhospital.com/", "RemoveRecord": null, "LAST_UPDATE_VAC": "02/25/2021      ", "LAST_UPDATE_TIME_VAC": "07:14:33        ", "marker-symbol": "circle-15", "marker-color": "#228B22"}}, {"type": "Feature", "geometry": {"type": "Point", "coordinates": [-100.91749497732, 32.6884824795128]}, "properties": {"OBJECTID": 1606, "NAME": "COGDELL MEMORIAL HOSPITAL", "TYPE": "Medical Practice", "TSA": "B", "STREET": "1700 Cogdell Blvd", "CITY": "Snyder", "COUNTY": "Scurry", "ADDRESS": "1700 Cogdell Blvd", "ZIP": "79549", "LATITUDE": 32.6884824795128, "LONGITUDE": -100.91749497732, "PFIZER_AVAILABLE": 1457, "MODERNA_AVAILABLE": 100, "VACCINES_AVAILABLE": 1557, "Total_Shipped": 4895, "PublicPhone": "(325) 573-1300", "WEBSITE": "http://www.cogdellhospital.com/", "RemoveRecord": null, "LAST_UPDATE_VAC": "02/25/2021      ", "LAST_UPDATE_TIME_VAC": "07:23:04        ", "marker-symbol": "circle-15", "marker-color": "#228B22"}}, {"type": "Feature", "geometry": {"type": "Point", "coordinates": [-95.6274815069641, 31.7339850411441]}, "properties": {"OBJECTID": 1611, "NAME": "PALESTINE REGIONAL MEDICAL CENTER", "TYPE": "Pharmacy", "TSA": "G", "STREET": "2900 S Loop 256", "CITY": "Palestine", "COUNTY": "Anderson", "ADDRESS": "2900 S Loop 256", "ZIP": "75801", "LATITUDE": 31.7339850411441, "LONGITUDE": -95.6274815069641, "PFIZER_AVAILABLE": 0, "MODERNA_AVAILABLE": 430, "VACCINES_AVAILABLE": 430, "Total_Shipped": 1100, "PublicPhone": "(903) 731-1000", "WEBSITE": "https://www.palestineregional.com/", "RemoveRecord": null, "LAST_UPDATE_VAC": "02/25/2021      ", "LAST_UPDATE_TIME_VAC": "08:25:52        ", "marker-symbol": "circle-15", "marker-color": "#228B22"}}, {"type": "Feature", "geometry": {"type": "Point", "coordinates": [-101.394236, 35.66481]}, "properties": {"OBJECTID": 1615, "NAME": "GOLDEN PLAINS COMMUNITY HOSPITAL", "TYPE": "Hospital", "TSA": "A", "STREET": "100 Medical Dr", "CITY": " Borger", "COUNTY": "Hutchinson", "ADDRESS": "100 Medical Dr, Borger, TX, 79007", "ZIP": "79007", "LATITUDE": 35.66481, "LONGITUDE": -101.394236, "PFIZER_AVAILABLE": 0, "MODERNA_AVAILABLE": 100, "VACCINES_AVAILABLE": 100, "Total_Shipped": 100, "PublicPhone": "(806) 467-5700", "WEBSITE": null, "RemoveRecord": null, "LAST_UPDATE_VAC": "02/25/2021      ", "LAST_UPDATE_TIME_VAC": "09:30:14        ", "marker-symbol": "circle-15", "marker-color": "#228B22"}}, {"type": "Feature", "geometry": {"type": "Point", "coordinates": [-101.20010995362, 36.1902669892601]}, "properties": {"OBJECTID": 1616, "NAME": "HANSFORD COUNTY HOSPITAL DISTRICT ", "TYPE": "Hospital", "TSA": "A", "STREET": "707 Roland St", "CITY": "Spearman", "COUNTY": "Hansford", "ADDRESS": "707 Roland St", "ZIP": "79081", "LATITUDE": 36.1902669892601, "LONGITUDE": -101.20010995362, "PFIZER_AVAILABLE": 0, "MODERNA_AVAILABLE": 200, "VACCINES_AVAILABLE": 200, "Total_Shipped": 1200, "PublicPhone": "(806) 659-2535", "WEBSITE": "http://www.hchd.net/", "RemoveRecord": null, "LAST_UPDATE_VAC": "02/25/2021      ", "LAST_UPDATE_TIME_VAC": "07:16:17        ", "marker-symbol": "circle-15", "marker-color": "#228B22"}}, {"type": "Feature", "geometry": {"type": "Point", "coordinates": [-97.4298584493435, 29.516854140394]}, "properties": {"OBJECTID": 1630, "NAME": "GONZALES HEALTHCARE SYSTEMS", "TYPE": "Hospital", "TSA": "P", "STREET": "1110 North Sarah Dewitt Drive", "CITY": "Gonzales", "COUNTY": "Gonzales", "ADDRESS": "1110 North Sarah Dewitt Drive", "ZIP": "78629", "LATITUDE": 29.516854140394, "LONGITUDE": -97.4298584493435, "PFIZER_AVAILABLE": 0, "MODERNA_AVAILABLE": 80, "VACCINES_AVAILABLE": 80, "Total_Shipped": 1200, "PublicPhone": "(830) 672-7581", "WEBSITE": "http://www.gonzaleshealthcare.com/", "RemoveRecord": null, "LAST_UPDATE_VAC": "02/25/2021      ", "LAST_UPDATE_TIME_VAC": "12:30:56        ", "marker-symbol": "circle-15", "marker-color": "#228B22"}}, {"type": "Feature", "geometry": {"type": "Point", "coordinates": [-97.0771740735868, 33.0347365527577]}, "properties": {"OBJECTID": 1643, "NAME": "ICARE REHABILITATION HOSPITAL", "TYPE": "Hospital", "TSA": "E", "STREET": "3100 Peters Colony Road", "CITY": "Flower Mound", "COUNTY": "Denton", "ADDRESS": "3100 Peters Colony Road", "ZIP": "75022", "LATITUDE": 33.0347365527577, "LONGITUDE": -97.0771740735868, "PFIZER_AVAILABLE": 0, "MODERNA_AVAILABLE": 90, "VACCINES_AVAILABLE": 90, "Total_Shipped": 200, "PublicPhone": null, "WEBSITE": null, "RemoveRecord": null, "LAST_UPDATE_VAC": "02/04/2021      ", "LAST_UPDATE_TIME_VAC": "11:49:41        ", "marker-symbol": "circle-15", "marker-color": "#228B22"}}, {"type": "Feature", "geometry": {"type": "Point", "coordinates": [-101.756016631497, 34.5356300587467]}, "properties": {"OBJECTID": 1649, "NAME": "SWISHER MEMORIAL HOSPITAL", "TYPE": "Community Clinic", "TSA": "A", "STREET": "539 Se 2nd St", "CITY": "Tulia", "COUNTY": "Swisher", "ADDRESS": "539 Se 2nd St", "ZIP": "79088", "LATITUDE": 34.5356300587467, "LONGITUDE": -101.756016631497, "PFIZER_AVAILABLE": 0, "MODERNA_AVAILABLE": 50, "VACCINES_AVAILABLE": 50, "Total_Shipped": 500, "PublicPhone": "(806) 995-3581", "WEBSITE": "http://www.swisherhospital.com/", "RemoveRecord": null, "LAST_UPDATE_VAC": "02/25/2021      ", "LAST_UPDATE_TIME_VAC": "10:21:47        ", "marker-symbol": "circle-15", "marker-color": "#228B22"}}, {"type": "Feature", "geometry": {"type": "Point", "coordinates": [-96.4799610415846, 31.6750262732036]}, "properties": {"OBJECTID": 1655, "NAME": "PARKVIEW REGIONAL HOSPITAL", "TYPE": "Pharmacy", "TSA": "M", "STREET": "600 S Bonham St", "CITY": "Mexia", "COUNTY": "Limestone", "ADDRESS": "600 S Bonham St", "ZIP": "76667", "LATITUDE": 31.6750262732036, "LONGITUDE": -96.4799610415846, "PFIZER_AVAILABLE": 0, "MODERNA_AVAILABLE": 390, "VACCINES_AVAILABLE": 390, "Total_Shipped": 600, "PublicPhone": "(254) 562-5332", "WEBSITE": "http://www.parkviewregional.com/", "RemoveRecord": null, "LAST_UPDATE_VAC": "02/25/2021      ", "LAST_UPDATE_TIME_VAC": "08:05:30        ", "marker-symbol": "circle-15", "marker-color": "#228B22"}}, {"type": "Feature", "geometry": {"type": "Point", "coordinates": [-99.962414996681, 31.7496774307218]}, "properties": {"OBJECTID": 1656, "NAME": "BALLINGER MEMORIAL HOSPITAL", "TYPE": "Hospital", "TSA": "K", "STREET": "608 Ave B", "CITY": "Ballinger", "COUNTY": "Runnels", "ADDRESS": "608 Ave B", "ZIP": "76821", "LATITUDE": 31.7496774307218, "LONGITUDE": -99.962414996681, "PFIZER_AVAILABLE": 0, "MODERNA_AVAILABLE": 100, "VACCINES_AVAILABLE": 100, "Total_Shipped": 300, "PublicPhone": "(325) 365-2531", "WEBSITE": "https://www.ballingerhospital.org/", "RemoveRecord": null, "LAST_UPDATE_VAC": "02/25/2021      ", "LAST_UPDATE_TIME_VAC": "08:18:28        ", "marker-symbol": "circle-15", "marker-color": "#228B22"}}, {"type": "Feature", "geometry": {"type": "Point", "coordinates": [-99.77824, 30.494191]}, "properties": {"OBJECTID": 1657, "NAME": "KIMBLE HOSPITAL", "TYPE": "Hospital", "TSA": "K", "STREET": "349 Reid Rd", "CITY": " Junction", "COUNTY": "Kimble", "ADDRESS": "349 Reid Rd, Junction, TX, 76849", "ZIP": "76849", "LATITUDE": 30.494191, "LONGITUDE": -99.77824, "PFIZER_AVAILABLE": 0, "MODERNA_AVAILABLE": 200, "VACCINES_AVAILABLE": 200, "Total_Shipped": 200, "PublicPhone": "(325) 446-3321", "WEBSITE": "https://www.kimblehospital.org/", "RemoveRecord": null, "LAST_UPDATE_VAC": "02/25/2021      ", "LAST_UPDATE_TIME_VAC": "16:30:32        ", "marker-symbol": "circle-15", "marker-color": "#228B22"}}, {"type": "Feature", "geometry": {"type": "Point", "coordinates": [-100.590481332636, 30.8697644392665]}, "properties": {"OBJECTID": 1662, "NAME": "SCHLEICHER COUNTY MEDICAL CTR", "TYPE": "Community Clinic", "TSA": "K", "STREET": "100 N Hwy 277", "CITY": "Eldorado", "COUNTY": "Schleicher", "ADDRESS": "100 N Hwy 277", "ZIP": "76936", "LATITUDE": 30.8697644392665, "LONGITUDE": -100.590481332636, "PFIZER_AVAILABLE": 0, "MODERNA_AVAILABLE": 8, "VACCINES_AVAILABLE": 8, "Total_Shipped": 400, "PublicPhone": "(325) 853-2507", "WEBSITE": "http://www.scmc.us/", "RemoveRecord": null, "LAST_UPDATE_VAC": "02/25/2021      ", "LAST_UPDATE_TIME_VAC": "16:52:13        ", "marker-symbol": "circle-15", "marker-color": "#228B22"}}, {"type": "Feature", "geometry": {"type": "Point", "coordinates": [-101.493131499175, 32.2701698331226]}, "properties": {"OBJECTID": 1667, "NAME": "BIG SPRING STATE HOSPITAL", "TYPE": "Hospital", "TSA": "B", "STREET": "1901 N Us Highway 87", "CITY": "Big Spring", "COUNTY": "Howard", "ADDRESS": "1901 N Us Highway 87", "ZIP": "79720", "LATITUDE": 32.2701698331226, "LONGITUDE": -101.493131499175, "PFIZER_AVAILABLE": 0, "MODERNA_AVAILABLE": 100, "VACCINES_AVAILABLE": 100, "Total_Shipped": 1600, "PublicPhone": "(432) 267-8216", "WEBSITE": "http://www.dshs.state.tx.us/mhhospitals/BigSpringSH/default.shtm", "RemoveRecord": null, "LAST_UPDATE_VAC": "02/24/2021      ", "LAST_UPDATE_TIME_VAC": "15:26:54        ", "marker-symbol": "circle-15", "marker-color": "#228B22"}}, {"type": "Feature", "geometry": {"type": "Point", "coordinates": [-95.5470807829625, 33.6871823871914]}, "properties": {"OBJECTID": 1675, "NAME": "PARIS REGIONAL MEDICAL CENTER NORTH", "TYPE": "Hospital", "TSA": "F", "STREET": "865 Deshong Dr", "CITY": "Paris", "COUNTY": "Lamar", "ADDRESS": "865 Deshong Dr", "ZIP": "75460", "LATITUDE": 33.6871823871914, "LONGITUDE": -95.5470807829625, "PFIZER_AVAILABLE": 0, "MODERNA_AVAILABLE": 200, "VACCINES_AVAILABLE": 200, "Total_Shipped": 2600, "PublicPhone": "(903) 737-1111", "WEBSITE": "http://parisregionalmedical.com/", "RemoveRecord": null, "LAST_UPDATE_VAC": "02/24/2021      ", "LAST_UPDATE_TIME_VAC": "09:13:48        ", "marker-symbol": "circle-15", "marker-color": "#228B22"}}, {"type": "Feature", "geometry": {"type": "Point", "coordinates": [-97.87852, 28.85104]}, "properties": {"OBJECTID": 1682, "NAME": "OTTO KAISER MEMORIAL - KENEDY", "TYPE": "Hospital", "TSA": "P", "STREET": "3349 US-181", "CITY": "Kenedy", "COUNTY": "Karnes", "ADDRESS": null, "ZIP": "78119", "LATITUDE": 28.85104, "LONGITUDE": -97.87852, "PFIZER_AVAILABLE": 0, "MODERNA_AVAILABLE": 400, "VACCINES_AVAILABLE": 400, "Total_Shipped": 1400, "PublicPhone": "(830) 583-3401", "WEBSITE": "http://www.okmh.org/", "RemoveRecord": null, "LAST_UPDATE_VAC": "02/25/2021      ", "LAST_UPDATE_TIME_VAC": "07:56:15        ", "marker-symbol": "circle-15", "marker-color": "#228B22"}}, {"type": "Feature", "geometry": {"type": "Point", "coordinates": [-98.1735494724352, 29.1597041763177]}, "properties": {"OBJECTID": 1683, "NAME": "CONNALLY MEMORIAL MEDICAL CENTER", "TYPE": "Pharmacy", "TSA": "P", "STREET": "499 10th St", "CITY": "Floresville", "COUNTY": "Wilson", "ADDRESS": "499 10th St", "ZIP": "78114", "LATITUDE": 29.1597041763177, "LONGITUDE": -98.1735494724352, "PFIZER_AVAILABLE": 0, "MODERNA_AVAILABLE": 600, "VACCINES_AVAILABLE": 600, "Total_Shipped": 800, "PublicPhone": "(830) 393-1400", "WEBSITE": "http://www.connallymmc.org/", "RemoveRecord": null, "LAST_UPDATE_VAC": "02/25/2021      ", "LAST_UPDATE_TIME_VAC": "08:26:04        ", "marker-symbol": "circle-15", "marker-color": "#228B22"}}, {"type": "Feature", "geometry": {"type": "Point", "coordinates": [-95.6907392273149, 29.0478882468526]}, "properties": {"OBJECTID": 1699, "NAME": "SWEENY COMMUNITY HOSPITAL", "TYPE": "Hospital", "TSA": "R", "STREET": "305 N Mckinney St", "CITY": "Sweeny", "COUNTY": "Brazoria", "ADDRESS": "305 N Mckinney St", "ZIP": "77480", "LATITUDE": 29.0478882468526, "LONGITUDE": -95.6907392273149, "PFIZER_AVAILABLE": 0, "MODERNA_AVAILABLE": 500, "VACCINES_AVAILABLE": 500, "Total_Shipped": 900, "PublicPhone": "(979) 548-1500", "WEBSITE": null, "RemoveRecord": null, "LAST_UPDATE_VAC": "02/25/2021      ", "LAST_UPDATE_TIME_VAC": "13:06:06        ", "marker-symbol": "circle-15", "marker-color": "#228B22"}}, {"type": "Feature", "geometry": {"type": "Point", "coordinates": [-97.7316229864926, 33.7782878949615]}, "properties": {"OBJECTID": 1700, "NAME": "NOCONA GENERAL HOSPITAL", "TYPE": "Community Clinic", "TSA": "C", "STREET": "100 Park Rd", "CITY": "Nocona", "COUNTY": "Montague", "ADDRESS": "100 Park Rd", "ZIP": "76255", "LATITUDE": 33.7782878949615, "LONGITUDE": -97.7316229864926, "PFIZER_AVAILABLE": 0, "MODERNA_AVAILABLE": 300, "VACCINES_AVAILABLE": 300, "Total_Shipped": 2650, "PublicPhone": "(940) 825-3235", "WEBSITE": "http://www.noconageneral.com/", "RemoveRecord": null, "LAST_UPDATE_VAC": "02/25/2021      ", "LAST_UPDATE_TIME_VAC": "06:10:25        ", "marker-symbol": "circle-15", "marker-color": "#228B22"}}, {"type": "Feature", "geometry": {"type": "Point", "coordinates": [-99.3133358321611, 34.1594530413675]}, "properties": {"OBJECTID": 1701, "NAME": "WILBARGER GENERAL HOSPITAL", "TYPE": "Hospital", "TSA": "C", "STREET": "920 Hillcrest Dr", "CITY": "Vernon", "COUNTY": "Wilbarger", "ADDRESS": "920 Hillcrest Dr", "ZIP": "76384", "LATITUDE": 34.1594530413675, "LONGITUDE": -99.3133358321611, "PFIZER_AVAILABLE": 0, "MODERNA_AVAILABLE": 200, "VACCINES_AVAILABLE": 200, "Total_Shipped": 400, "PublicPhone": "(940) 552-9351", "WEBSITE": "http://www.wghospital.com/", "RemoveRecord": null, "LAST_UPDATE_VAC": "02/25/2021      ", "LAST_UPDATE_TIME_VAC": "08:18:21        ", "marker-symbol": "circle-15", "marker-color": "#228B22"}}, {"type": "Feature", "geometry": {"type": "Point", "coordinates": [-96.5872473905731, 33.7106999120257]}, "properties": {"OBJECTID": 1702, "NAME": "TEXOMA MEDICAL CENTER", "TYPE": "Hospital", "TSA": "E", "STREET": "5016 S Us Highway 75", "CITY": "Denison", "COUNTY": "Grayson", "ADDRESS": "5016 S Us Highway 75", "ZIP": "75020", "LATITUDE": 33.7106999120257, "LONGITUDE": -96.5872473905731, "PFIZER_AVAILABLE": 650, "MODERNA_AVAILABLE": 0, "VACCINES_AVAILABLE": 650, "Total_Shipped": 13800, "PublicPhone": "(903) 416-4000", "WEBSITE": "https://www.texomamedicalcenter.net/?utm_source=google-business&utm_medium=organic&utm_campaign=homepage", "RemoveRecord": null, "LAST_UPDATE_VAC": "02/25/2021      ", "LAST_UPDATE_TIME_VAC": "08:33:24        ", "marker-symbol": "circle-15", "marker-color": "#228B22"}}, {"type": "Feature", "geometry": {"type": "Point", "coordinates": [-97.746456, 32.242461]}, "properties": {"OBJECTID": 1704, "NAME": "GLEN ROSE MEDICAL CENTER", "TYPE": "Hospital", "TSA": "E", "STREET": "1021 Holden St.", "CITY": " Glen Rose", "COUNTY": "Somervell", "ADDRESS": "1021 Holden St., Glen Rose, TX, 76043", "ZIP": "76043", "LATITUDE": 32.242461, "LONGITUDE": -97.746456, "PFIZER_AVAILABLE": 0, "MODERNA_AVAILABLE": 300, "VACCINES_AVAILABLE": 300, "Total_Shipped": 300, "PublicPhone": "(254) 897-2215", "WEBSITE": "http://www.glenrosemedicalcenter.com/", "RemoveRecord": null, "LAST_UPDATE_VAC": "02/25/2021      ", "LAST_UPDATE_TIME_VAC": "08:10:48        ", "marker-symbol": "circle-15", "marker-color": "#228B22"}}, {"type": "Feature", "geometry": {"type": "Point", "coordinates": [-96.8362655196507, 32.8086273385252]}, "properties": {"OBJECTID": 1714, "NAME": "CHST CHILDREN'S MEDICAL CENTER - DALLAS", "TYPE": "Hospital", "TSA": "E", "STREET": "1935 Medical District Drive", "CITY": "Dallas", "COUNTY": "Dallas", "ADDRESS": "1935 Medical District Drive", "ZIP": "75235", "LATITUDE": 32.8086273385252, "LONGITUDE": -96.8362655196507, "PFIZER_AVAILABLE": 0, "MODERNA_AVAILABLE": 4470, "VACCINES_AVAILABLE": 4470, "Total_Shipped": 21400, "PublicPhone": "(214) 456-7000", "WEBSITE": "https://www.childrens.com/location-landing/locations-and-directions/childrens-health-dallas?utm_source=google&utm_medium=yext&utm_campaign=Childrens%20Health%20Locations%20%20Childrens%20Medical%20Center%20%20Dallas%20%20Brand", "RemoveRecord": null, "LAST_UPDATE_VAC": "02/25/2021      ", "LAST_UPDATE_TIME_VAC": "07:50:46        ", "marker-symbol": "circle-15", "marker-color": "#228B22"}}, {"type": "Feature", "geometry": {"type": "Point", "coordinates": [-96.7048174173018, 32.8355042938368]}, "properties": {"OBJECTID": 1717, "NAME": "CITY HOSPITAL WHITE ROCK", "TYPE": "Hospital", "TSA": "E", "STREET": "9440 Poppy Dr", "CITY": "Dallas", "COUNTY": "Dallas", "ADDRESS": "9440 Poppy Dr", "ZIP": "75218", "LATITUDE": 32.8355042938368, "LONGITUDE": -96.7048174173018, "PFIZER_AVAILABLE": 0, "MODERNA_AVAILABLE": 60, "VACCINES_AVAILABLE": 60, "Total_Shipped": 1000, "PublicPhone": "(214) 324-6100", "WEBSITE": "http://www.cityhospital.co/", "RemoveRecord": null, "LAST_UPDATE_VAC": "02/25/2021      ", "LAST_UPDATE_TIME_VAC": "16:20:34        ", "marker-symbol": "circle-15", "marker-color": "#228B22"}}, {"type": "Feature", "geometry": {"type": "Point", "coordinates": [-97.6457236, 30.5572951]}, "properties": {"OBJECTID": 1730, "NAME": "Seton Circle Of Care Senior Health", "TYPE": "Community Clinic", "TSA": "O", "STREET": "3950 N A W Grimes Blvd", "CITY": "Round Rock", "COUNTY": "Williamson", "ADDRESS": "3950 N A W Grimes Blvd #104 102", "ZIP": "78665", "LATITUDE": 30.5572951, "LONGITUDE": -97.6457236, "PFIZER_AVAILABLE": 0, "MODERNA_AVAILABLE": 100, "VACCINES_AVAILABLE": 100, "Total_Shipped": 100, "PublicPhone": "877-800-5722", "WEBSITE": "www.lonestarcares.org", "RemoveRecord": null, "LAST_UPDATE_VAC": "02/25/2021      ", "LAST_UPDATE_TIME_VAC": "07:09:19        ", "marker-symbol": "circle-15", "marker-color": "#228B22"}}, {"type": "Feature", "geometry": {"type": "Point", "coordinates": [-98.55047943, 28.45992972]}, "properties": {"OBJECTID": 1756, "NAME": "McMullen Community Health Center", "TYPE": "Community Clinic", "TSA": "U", "STREET": "203 Hackberry St", "CITY": "Tilden", "COUNTY": "McMullen", "ADDRESS": "203 Hackberry St", "ZIP": "78072", "LATITUDE": 28.45992972, "LONGITUDE": -98.55047943, "PFIZER_AVAILABLE": 0, "MODERNA_AVAILABLE": 100, "VACCINES_AVAILABLE": 100, "Total_Shipped": 100, "PublicPhone": "361-274-3690", "WEBSITE": "www.atascosahealthcenter.org", "RemoveRecord": null, "LAST_UPDATE_VAC": "02/25/2021      ", "LAST_UPDATE_TIME_VAC": "09:10:04        ", "marker-symbol": "circle-15", "marker-color": "#228B22"}}, {"type": "Feature", "geometry": {"type": "Point", "coordinates": [-102.737287738701, 34.2336625579604]}, "properties": {"OBJECTID": 1776, "NAME": "Kk Pharmacy", "TYPE": "Pharmacy", "TSA": null, "STREET": "1411 West American Blvd", "CITY": "Muleshoe", "COUNTY": "Bailey", "ADDRESS": "1411 West American Blvd", "ZIP": "79347", "LATITUDE": 34.2336625579604, "LONGITUDE": -102.737287738701, "PFIZER_AVAILABLE": 1074, "MODERNA_AVAILABLE": 0, "VACCINES_AVAILABLE": 1074, "Total_Shipped": 200, "PublicPhone": "(806) 272-7511", "WEBSITE": "https://www.mygnp.com/pharmacies/kks-pharmacy-51-dallas-tx-75233/?utm_source=google&utm_medium=local&utm_campaign=localmaps&utm_content=5904493", "RemoveRecord": null, "LAST_UPDATE_VAC": "02/25/2021      ", "LAST_UPDATE_TIME_VAC": "17:06:02        ", "marker-symbol": "circle-15", "marker-color": "#228B22"}}, {"type": "Feature", "geometry": {"type": "Point", "coordinates": [-99.73081898863, 32.4545373173685]}, "properties": {"OBJECTID": 1791, "NAME": "Lhd Abilenetaylor County Health Departm", "TYPE": "Other", "TSA": null, "STREET": "850 N 6th St", "CITY": "Abilene", "COUNTY": "Taylor", "ADDRESS": "850 N 6th St", "ZIP": "79601", "LATITUDE": 32.4545373173685, "LONGITUDE": -99.73081898863, "PFIZER_AVAILABLE": 78, "MODERNA_AVAILABLE": 0, "VACCINES_AVAILABLE": 78, "Total_Shipped": 11010, "PublicPhone": "(325) 692-5600", "WEBSITE": null, "RemoveRecord": null, "LAST_UPDATE_VAC": "02/25/2021      ", "LAST_UPDATE_TIME_VAC": "20:04:22        ", "marker-symbol": "circle-15", "marker-color": "#228B22"}}, {"type": "Feature", "geometry": {"type": "Point", "coordinates": [-96.1718529719066, 31.7250748569649]}, "properties": {"OBJECTID": 1811, "NAME": "Freestone Health Clinic", "TYPE": "Community Clinic", "TSA": null, "STREET": "734 West Commerce", "CITY": "Fairfield", "COUNTY": "Freestone", "ADDRESS": "734 West Commerce", "ZIP": "75840", "LATITUDE": 31.7250748569649, "LONGITUDE": -96.1718529719066, "PFIZER_AVAILABLE": 0, "MODERNA_AVAILABLE": 200, "VACCINES_AVAILABLE": 200, "Total_Shipped": 200, "PublicPhone": "(903) 389-2181", "WEBSITE": "http://www.freestonemc.com/services/freestone-health-clinic/", "RemoveRecord": null, "LAST_UPDATE_VAC": "02/25/2021      ", "LAST_UPDATE_TIME_VAC": "07:54:27        ", "marker-symbol": "circle-15", "marker-color": "#228B22"}}, {"type": "Feature", "geometry": {"type": "Point", "coordinates": [-97.1771604, 33.2345872]}, "properties": {"OBJECTID": 1858, "NAME": "Health Services of North Texas ", "TYPE": "Medical Practice", "TSA": null, "STREET": "Mesa Drive", "CITY": "Denton", "COUNTY": "Denton", "ADDRESS": "4304 Mesa Drive", "ZIP": "Texas", "LATITUDE": 33.2345872, "LONGITUDE": -97.1771604, "PFIZER_AVAILABLE": 0, "MODERNA_AVAILABLE": 300, "VACCINES_AVAILABLE": 300, "Total_Shipped": 800, "PublicPhone": null, "WEBSITE": null, "RemoveRecord": null, "LAST_UPDATE_VAC": "02/25/2021      ", "LAST_UPDATE_TIME_VAC": "17:19:23        ", "marker-symbol": "circle-15", "marker-color": "#228B22"}}, {"type": "Feature", "geometry": {"type": "Point", "coordinates": [-96.743549, 32.941253]}, "properties": {"OBJECTID": 1862, "NAME": "ALLIANCE UNITED HOSPICE CARE INC", "TYPE": "Other", "TSA": null, "STREET": "811 SOUTH CENTRAL EXPRESSWAY", "CITY": "Richardson", "COUNTY": "DALLAS", "ADDRESS": "811 SOUTH CENTRAL EXPRESSWAY", "ZIP": "75080", "LATITUDE": 32.941253, "LONGITUDE": -96.743549, "PFIZER_AVAILABLE": 0, "MODERNA_AVAILABLE": 30, "VACCINES_AVAILABLE": 30, "Total_Shipped": 200, "PublicPhone": null, "WEBSITE": null, "RemoveRecord": null, "LAST_UPDATE_VAC": "02/25/2021      ", "LAST_UPDATE_TIME_VAC": "08:40:22        ", "marker-symbol": "circle-15", "marker-color": "#228B22"}}, {"type": "Feature", "geometry": {"type": "Point", "coordinates": [-98.2374672902179, 27.7681377313262]}, "properties": {"OBJECTID": 1863, "NAME": "San Diego Pharmacy", "TYPE": "Pharmacy", "TSA": null, "STREET": "500 S Dr Ee Dunlap St", "CITY": "San Diego", "COUNTY": "Duval", "ADDRESS": "500 S Dr Ee Dunlap St", "ZIP": "78384", "LATITUDE": 27.7681377313262, "LONGITUDE": -98.2374672902179, "PFIZER_AVAILABLE": 0, "MODERNA_AVAILABLE": 100, "VACCINES_AVAILABLE": 100, "Total_Shipped": 300, "PublicPhone": "(361) 209-8322", "WEBSITE": "https://sandiegopharmacy.business.site/?utm_source=gmb&utm_medium=referral", "RemoveRecord": null, "LAST_UPDATE_VAC": "02/24/2021      ", "LAST_UPDATE_TIME_VAC": "09:06:23        ", "marker-symbol": "circle-15", "marker-color": "#228B22"}}, {"type": "Feature", "geometry": {"type": "Point", "coordinates": [-97.64582, 30.55623]}, "properties": {"OBJECTID": 1874, "NAME": "Lone Star Circle of Care at Texas A&M Health Science Center Family Health", "TYPE": "Other", "TSA": "O", "STREET": "3950 N A W Grimes Blvd # 301", "CITY": "Round Rock", "COUNTY": "Williamson", "ADDRESS": "3950 N A W Grimes Blvd #N301A 301 Round Rock, TX 78665", "ZIP": "78665", "LATITUDE": 30.55623, "LONGITUDE": -97.64582, "PFIZER_AVAILABLE": 0, "MODERNA_AVAILABLE": 100, "VACCINES_AVAILABLE": 100, "Total_Shipped": 400, "PublicPhone": "877-800-5722", "WEBSITE": "www.lonestarcares.org", "RemoveRecord": null, "LAST_UPDATE_VAC": "02/25/2021      ", "LAST_UPDATE_TIME_VAC": "07:46:32        ", "marker-symbol": "circle-15", "marker-color": "#228B22"}}, {"type": "Feature", "geometry": {"type": "Point", "coordinates": [-99.4766015, 27.535661]}, "properties": {"OBJECTID": 1875, "NAME": "Gateway Community Health Center Inc. - Laredo", "TYPE": "Community Clinic", "TSA": "T", "STREET": "1515 Pappas St.", "CITY": "Laredo", "COUNTY": "Webb", "ADDRESS": "1515 Pappas St.", "ZIP": "78041", "LATITUDE": 27.535661, "LONGITUDE": -99.4766015, "PFIZER_AVAILABLE": 0, "MODERNA_AVAILABLE": 500, "VACCINES_AVAILABLE": 500, "Total_Shipped": 100, "PublicPhone": null, "WEBSITE": null, "RemoveRecord": null, "LAST_UPDATE_VAC": "02/25/2021      ", "LAST_UPDATE_TIME_VAC": "14:31:46        ", "marker-symbol": "circle-15", "marker-color": "#228B22"}}, {"type": "Feature", "geometry": {"type": "Point", "coordinates": [-97.74491, 30.40588]}, "properties": {"OBJECTID": 1878, "NAME": "Lone Star Circle of Care at Northwest Austin \u2013 Family Medicine", "TYPE": "Other", "TSA": "O", "STREET": "11111 Research Blvd Ste 320", "CITY": "Austin", "COUNTY": "Travis", "ADDRESS": "11111 Research Blvd Ste 320", "ZIP": "78759", "LATITUDE": 30.40588, "LONGITUDE": -97.74491, "PFIZER_AVAILABLE": 0, "MODERNA_AVAILABLE": 100, "VACCINES_AVAILABLE": 100, "Total_Shipped": 400, "PublicPhone": "(877) 800-5722", "WEBSITE": "www.lonestarcares.org", "RemoveRecord": null, "LAST_UPDATE_VAC": "02/25/2021      ", "LAST_UPDATE_TIME_VAC": "07:41:45        ", "marker-symbol": "circle-15", "marker-color": "#228B22"}}, {"type": "Feature", "geometry": {"type": "Point", "coordinates": [-100.80002, 36.37001]}, "properties": {"OBJECTID": 1886, "NAME": "DEWITT FAMILY PRACTICE", "TYPE": "Other", "TSA": "A", "STREET": "3020 Garrett Drive", "CITY": "Perryton", "COUNTY": "Ochiltree", "ADDRESS": "3020 Garrett Drive", "ZIP": "79070", "LATITUDE": 36.37001, "LONGITUDE": -100.80002, "PFIZER_AVAILABLE": 0, "MODERNA_AVAILABLE": 100, "VACCINES_AVAILABLE": 100, "Total_Shipped": 200, "PublicPhone": null, "WEBSITE": null, "RemoveRecord": null, "LAST_UPDATE_VAC": "02/25/2021      ", "LAST_UPDATE_TIME_VAC": "10:05:50        ", "marker-symbol": "circle-15", "marker-color": "#228B22"}}, {"type": "Feature", "geometry": {"type": "Point", "coordinates": [-94.66279763, 31.59589992]}, "properties": {"OBJECTID": 1887, "NAME": "Care First Clinic Family Medicine and Specialty", "TYPE": "Community Clinic", "TSA": "H", "STREET": "1106 South St, Nacogdoches, TX 75964", "CITY": "Nacogdoches", "COUNTY": "Nacogdoches", "ADDRESS": "1106 South St", "ZIP": "75964", "LATITUDE": 31.59589992, "LONGITUDE": -94.66279763, "PFIZER_AVAILABLE": 0, "MODERNA_AVAILABLE": 300, "VACCINES_AVAILABLE": 300, "Total_Shipped": 400, "PublicPhone": null, "WEBSITE": null, "RemoveRecord": null, "LAST_UPDATE_VAC": "02/25/2021      ", "LAST_UPDATE_TIME_VAC": "08:29:10        ", "marker-symbol": "circle-15", "marker-color": "#228B22"}}, {"type": "Feature", "geometry": {"type": "Point", "coordinates": [-96.53114, 31.53266]}, "properties": {"OBJECTID": 1891, "NAME": "Family Medicine Center Groesbeck", "TYPE": "Other", "TSA": "M", "STREET": "701 McClintic Dr", "CITY": "Groesbeck", "COUNTY": "Limestone", "ADDRESS": "701 McClintic Dr", "ZIP": "76642", "LATITUDE": 31.53266, "LONGITUDE": -96.53114, "PFIZER_AVAILABLE": 0, "MODERNA_AVAILABLE": 200, "VACCINES_AVAILABLE": 200, "Total_Shipped": 300, "PublicPhone": "254-729-3281", "WEBSITE": null, "RemoveRecord": null, "LAST_UPDATE_VAC": "02/25/2021      ", "LAST_UPDATE_TIME_VAC": "13:39:01        ", "marker-symbol": "circle-15", "marker-color": "#228B22"}}, {"type": "Feature", "geometry": {"type": "Point", "coordinates": [-98.67406, 27.29979]}, "properties": {"OBJECTID": 1893, "NAME": "Gateway Community Health Center Inc. - Hebbronville", "TYPE": "Community Clinic", "TSA": "T", "STREET": "473 State Highway 285", "CITY": "Hebbronville", "COUNTY": "Jim Hogg", "ADDRESS": "473 State Highway 285", "ZIP": "78361", "LATITUDE": 27.29979, "LONGITUDE": -98.67406, "PFIZER_AVAILABLE": 0, "MODERNA_AVAILABLE": 270, "VACCINES_AVAILABLE": 270, "Total_Shipped": 500, "PublicPhone": "3615274053", "WEBSITE": null, "RemoveRecord": null, "LAST_UPDATE_VAC": "02/25/2021      ", "LAST_UPDATE_TIME_VAC": "14:32:47        ", "marker-symbol": "circle-15", "marker-color": "#228B22"}}, {"type": "Feature", "geometry": {"type": "Point", "coordinates": [-96.6333532, 28.6247823]}, "properties": {"OBJECTID": 1898, "NAME": "Port Lavaca Clinic Assoc.", "TYPE": "Medical Practice", "TSA": "S", "STREET": "1200 N Virginia St", "CITY": "Port Lavaca", "COUNTY": "Calhoun", "ADDRESS": "1200 North Virginia Street, Port Lavaca, TX, USA", "ZIP": "77979", "LATITUDE": 28.6247823, "LONGITUDE": -96.6333532, "PFIZER_AVAILABLE": 0, "MODERNA_AVAILABLE": 100, "VACCINES_AVAILABLE": 100, "Total_Shipped": 500, "PublicPhone": null, "WEBSITE": null, "RemoveRecord": null, "LAST_UPDATE_VAC": "02/25/2021      ", "LAST_UPDATE_TIME_VAC": "16:47:35        ", "marker-symbol": "circle-15", "marker-color": "#228B22"}}, {"type": "Feature", "geometry": {"type": "Point", "coordinates": [-99.7410497969142, 34.2968617634019]}, "properties": {"OBJECTID": 1913, "NAME": "Hardeman County Clinic", "TYPE": "Community Clinic", "TSA": null, "STREET": "404 Mercer St", "CITY": "Quanah", "COUNTY": "Hardeman", "ADDRESS": "404 Mercer St", "ZIP": "79252", "LATITUDE": 34.2968617634019, "LONGITUDE": -99.7410497969142, "PFIZER_AVAILABLE": 0, "MODERNA_AVAILABLE": 100, "VACCINES_AVAILABLE": 100, "Total_Shipped": 400, "PublicPhone": "(940) 663-6651", "WEBSITE": null, "RemoveRecord": null, "LAST_UPDATE_VAC": "02/25/2021      ", "LAST_UPDATE_TIME_VAC": "13:08:48        ", "marker-symbol": "circle-15", "marker-color": "#228B22"}}, {"type": "Feature", "geometry": {"type": "Point", "coordinates": [-94.16545608, 33.1052409]}, "properties": {"OBJECTID": 1923, "NAME": "East Texas Border Health Clinic dba Genesis PrimeCare - Atlanta", "TYPE": "Community Clinic", "TSA": "F", "STREET": "1011 S William Street", "CITY": "Atlanta", "COUNTY": "Cass", "ADDRESS": "1011 S William Street", "ZIP": "75551", "LATITUDE": 33.1052409, "LONGITUDE": -94.16545608, "PFIZER_AVAILABLE": 0, "MODERNA_AVAILABLE": 300, "VACCINES_AVAILABLE": 300, "Total_Shipped": 500, "PublicPhone": null, "WEBSITE": null, "RemoveRecord": null, "LAST_UPDATE_VAC": "02/25/2021      ", "LAST_UPDATE_TIME_VAC": "08:30:32        ", "marker-symbol": "circle-15", "marker-color": "#228B22"}}, {"type": "Feature", "geometry": {"type": "Point", "coordinates": [-95.8537048, 32.2180694]}, "properties": {"OBJECTID": 1930, "NAME": "Family Circle of Care Athens", "TYPE": "Community Clinic", "TSA": null, "STREET": "1001 N. Palestine Street", "CITY": "Athens", "COUNTY": "Henderson", "ADDRESS": "1001 North Palestine Street", "ZIP": "75751", "LATITUDE": 32.2180694, "LONGITUDE": -95.8537048, "PFIZER_AVAILABLE": 0, "MODERNA_AVAILABLE": 180, "VACCINES_AVAILABLE": 180, "Total_Shipped": 500, "PublicPhone": "9035359041", "WEBSITE": null, "RemoveRecord": null, "LAST_UPDATE_VAC": "02/25/2021      ", "LAST_UPDATE_TIME_VAC": "07:28:58        ", "marker-symbol": "circle-15", "marker-color": "#228B22"}}, {"type": "Feature", "geometry": {"type": "Point", "coordinates": [-98.48698999, 28.95714748]}, "properties": {"OBJECTID": 1934, "NAME": "ATASCOSA HEALTH CENTER, INC", "TYPE": "Medical Practice", "TSA": "P", "STREET": "310 WEST OAKLAWN RD", "CITY": "PLEASANTON", "COUNTY": "Atascosa", "ADDRESS": "310 WEST OAKLAWN RD", "ZIP": "78064", "LATITUDE": 28.95714748, "LONGITUDE": -98.48698999, "PFIZER_AVAILABLE": 0, "MODERNA_AVAILABLE": 300, "VACCINES_AVAILABLE": 300, "Total_Shipped": 500, "PublicPhone": "(830) 569-2527", "WEBSITE": null, "RemoveRecord": null, "LAST_UPDATE_VAC": "02/25/2021      ", "LAST_UPDATE_TIME_VAC": "08:46:09        ", "marker-symbol": "circle-15", "marker-color": "#228B22"}}, {"type": "Feature", "geometry": {"type": "Point", "coordinates": [-96.9287044, 30.1799265]}, "properties": {"OBJECTID": 1978, "NAME": "Pieratts Pharmacy", "TYPE": "Pharmacy", "TSA": null, "STREET": "233 S Knox Ave", "CITY": "Giddings", "COUNTY": "Lee", "ADDRESS": "233 South Knox Avenue", "ZIP": "3429", "LATITUDE": 30.1799265, "LONGITUDE": -96.9287044, "PFIZER_AVAILABLE": 0, "MODERNA_AVAILABLE": 100, "VACCINES_AVAILABLE": 100, "Total_Shipped": 200, "PublicPhone": "(979) 542-3164", "WEBSITE": null, "RemoveRecord": null, "LAST_UPDATE_VAC": "02/25/2021      ", "LAST_UPDATE_TIME_VAC": "17:14:15        ", "marker-symbol": "circle-15", "marker-color": "#228B22"}}, {"type": "Feature", "geometry": {"type": "Point", "coordinates": [-97.7748688262759, 30.2238500107272]}, "properties": {"OBJECTID": 1995, "NAME": "Austin Ear Nose and Throat Clinic", "TYPE": "Medical Practice", "TSA": null, "STREET": "4315 James Casey #300", "CITY": "Austin", "COUNTY": "TRAVIS", "ADDRESS": "4315 James Casey #300", "ZIP": "78731", "LATITUDE": 30.2238500107272, "LONGITUDE": -97.7748688262759, "PFIZER_AVAILABLE": 0, "MODERNA_AVAILABLE": 500, "VACCINES_AVAILABLE": 500, "Total_Shipped": 2000, "PublicPhone": null, "WEBSITE": null, "RemoveRecord": null, "LAST_UPDATE_VAC": "02/25/2021      ", "LAST_UPDATE_TIME_VAC": "06:35:14        ", "marker-symbol": "circle-15", "marker-color": "#228B22"}}, {"type": "Feature", "geometry": {"type": "Point", "coordinates": [-95.2383919356225, 33.1485250331121]}, "properties": {"OBJECTID": 2005, "NAME": "Franklin County Rural Health Clinic", "TYPE": "Community Clinic", "TSA": null, "STREET": "506 Texas Highway 37", "CITY": "Mount Vernon", "COUNTY": "Franklin", "ADDRESS": "506 Texas Highway 37", "ZIP": "75457", "LATITUDE": 33.1485250331121, "LONGITUDE": -95.2383919356225, "PFIZER_AVAILABLE": 0, "MODERNA_AVAILABLE": 110, "VACCINES_AVAILABLE": 110, "Total_Shipped": 500, "PublicPhone": "(903) 537-8222", "WEBSITE": "http://www.fcrhc.com/", "RemoveRecord": null, "LAST_UPDATE_VAC": "02/25/2021      ", "LAST_UPDATE_TIME_VAC": "10:03:08        ", "marker-symbol": "circle-15", "marker-color": "#228B22"}}, {"type": "Feature", "geometry": {"type": "Point", "coordinates": [-95.8482603483963, 32.1687476607183]}, "properties": {"OBJECTID": 2065, "NAME": "Lakeland", "TYPE": "Medical Practice", "TSA": null, "STREET": "117 Medical Circle", "CITY": "Athens", "COUNTY": "Henderson", "ADDRESS": "117 Medical Circle", "ZIP": "75751", "LATITUDE": 32.1687476607183, "LONGITUDE": -95.8482603483963, "PFIZER_AVAILABLE": 0, "MODERNA_AVAILABLE": 200, "VACCINES_AVAILABLE": 200, "Total_Shipped": 1000, "PublicPhone": null, "WEBSITE": "http://www.lakelandgov.net/", "RemoveRecord": null, "LAST_UPDATE_VAC": "02/25/2021      ", "LAST_UPDATE_TIME_VAC": "07:34:12        ", "marker-symbol": "circle-15", "marker-color": "#228B22"}}, {"type": "Feature", "geometry": {"type": "Point", "coordinates": [-100.454, 31.4921]}, "properties": {"OBJECTID": 2072, "NAME": "La Esperanza Clinic- 31st Street", "TYPE": "Community Clinic", "TSA": null, "STREET": "35 e 31st st", "CITY": "San Angelo", "COUNTY": "Tom Green", "ADDRESS": "35 E 31st St", "ZIP": "76903", "LATITUDE": 31.4921, "LONGITUDE": -100.454, "PFIZER_AVAILABLE": 0, "MODERNA_AVAILABLE": 60, "VACCINES_AVAILABLE": 60, "Total_Shipped": 500, "PublicPhone": null, "WEBSITE": null, "RemoveRecord": null, "LAST_UPDATE_VAC": "02/25/2021      ", "LAST_UPDATE_TIME_VAC": "07:25:35        ", "marker-symbol": "circle-15", "marker-color": "#228B22"}}, {"type": "Feature", "geometry": {"type": "Point", "coordinates": [-95.6316490730417, 31.7357276807243]}, "properties": {"OBJECTID": 2085, "NAME": "Christus Trinity Clinic Magnolia Medical Plaza", "TYPE": "Community Clinic", "TSA": null, "STREET": "3201 South Loop 256", "CITY": "Palestine", "COUNTY": "Anderson", "ADDRESS": "3201 South Loop 256", "ZIP": "75801", "LATITUDE": 31.7357276807243, "LONGITUDE": -95.6316490730417, "PFIZER_AVAILABLE": 0, "MODERNA_AVAILABLE": 50, "VACCINES_AVAILABLE": 50, "Total_Shipped": 3800, "PublicPhone": "(903) 723-0330", "WEBSITE": "https://www.christushealth.org/trinity/clinic/locations-directions/magnolia-medical-plaza-palestine?utm_source=organic&utm_medium=GMB&utm_campaign=website&y_source=1_MTE3ODEzMjQtNzE1LWxvY2F0aW9uLmdvb2dsZV93ZWJzaXRlX292ZXJyaWRl", "RemoveRecord": null, "LAST_UPDATE_VAC": "02/25/2021      ", "LAST_UPDATE_TIME_VAC": "07:56:00        ", "marker-symbol": "circle-15", "marker-color": "#228B22"}}, {"type": "Feature", "geometry": {"type": "Point", "coordinates": [-95.598459, 33.157957]}, "properties": {"OBJECTID": 2089, "NAME": "Christus Trinity Clinic - Sulphur Springs", "TYPE": "Medical Practice", "TSA": null, "STREET": "105 MEDICAL PLZ BLDG 1 ", "CITY": "Sulphur Springs", "COUNTY": "Hopkins", "ADDRESS": "105 MEDICAL PLZ BLDG 1 ", "ZIP": "75482", "LATITUDE": 33.157957, "LONGITUDE": -95.598459, "PFIZER_AVAILABLE": 0, "MODERNA_AVAILABLE": 200, "VACCINES_AVAILABLE": 200, "Total_Shipped": 2000, "PublicPhone": "(903) 885-1740", "WEBSITE": "https://www.christushealth.org/trinity/clinic/locations-directions/pain-management-sulphur-springs?utm_source=organic&utm_medium=GMB&utm_campaign=website&y_source=1_MTU4Mzk0NDUtNzE1LWxvY2F0aW9uLmdvb2dsZV93ZWJzaXRlX292ZXJyaWRl", "RemoveRecord": null, "LAST_UPDATE_VAC": "02/25/2021      ", "LAST_UPDATE_TIME_VAC": "20:57:59        ", "marker-symbol": "circle-15", "marker-color": "#228B22"}}, {"type": "Feature", "geometry": {"type": "Point", "coordinates": [-95.4843280722779, 32.6785643411235]}, "properties": {"OBJECTID": 2094, "NAME": "Trinity Clinic Mineola", "TYPE": "Community Clinic", "TSA": null, "STREET": "1302 N Pacific St", "CITY": "Mineola", "COUNTY": "Wood", "ADDRESS": "1302 N Pacific St", "ZIP": "75773", "LATITUDE": 32.6785643411235, "LONGITUDE": -95.4843280722779, "PFIZER_AVAILABLE": 0, "MODERNA_AVAILABLE": 110, "VACCINES_AVAILABLE": 110, "Total_Shipped": 500, "PublicPhone": "(903) 569-5383", "WEBSITE": "https://www.christushealth.org/trinity/clinic/locations-directions/mineola?utm_source=organic&utm_medium=GMB&utm_campaign=website&y_source=1_MTE3ODEyMDUtNzE1LWxvY2F0aW9uLmdvb2dsZV93ZWJzaXRlX292ZXJyaWRl", "RemoveRecord": null, "LAST_UPDATE_VAC": "02/24/2021      ", "LAST_UPDATE_TIME_VAC": "08:34:25        ", "marker-symbol": "circle-15", "marker-color": "#228B22"}}, {"type": "Feature", "geometry": {"type": "Point", "coordinates": [-101.30570030832, 34.4729925154116]}, "properties": {"OBJECTID": 2099, "NAME": "Cogdell Clinic Briscoe County", "TYPE": "Hospital", "TSA": null, "STREET": "701 Commerce St", "CITY": "Silverton", "COUNTY": "Briscoe", "ADDRESS": "701 Commerce St", "ZIP": "79257", "LATITUDE": 34.4729925154116, "LONGITUDE": -101.30570030832, "PFIZER_AVAILABLE": 0, "MODERNA_AVAILABLE": 50, "VACCINES_AVAILABLE": 50, "Total_Shipped": 400, "PublicPhone": null, "WEBSITE": null, "RemoveRecord": null, "LAST_UPDATE_VAC": "02/25/2021      ", "LAST_UPDATE_TIME_VAC": "22:23:18        ", "marker-symbol": "circle-15", "marker-color": "#228B22"}}, {"type": "Feature", "geometry": {"type": "Point", "coordinates": [-94.7398527966532, 32.5144978484672]}, "properties": {"OBJECTID": 2101, "NAME": "Louis Morgan Drug 4", "TYPE": "Pharmacy", "TSA": null, "STREET": "110 Johnston St", "CITY": "Longview", "COUNTY": "Gregg", "ADDRESS": "110 Johnston St", "ZIP": "75601", "LATITUDE": 32.5144978484672, "LONGITUDE": -94.7398527966532, "PFIZER_AVAILABLE": 0, "MODERNA_AVAILABLE": 20, "VACCINES_AVAILABLE": 20, "Total_Shipped": 300, "PublicPhone": "(903) 758-6164", "WEBSITE": "http://www.lmd4.com/", "RemoveRecord": null, "LAST_UPDATE_VAC": "02/25/2021      ", "LAST_UPDATE_TIME_VAC": "07:38:19        ", "marker-symbol": "circle-15", "marker-color": "#228B22"}}, {"type": "Feature", "geometry": {"type": "Point", "coordinates": [-95.5515111217048, 29.70354200327]}, "properties": {"OBJECTID": 2113, "NAME": "Hope Clinic", "TYPE": "Community Clinic", "TSA": null, "STREET": "7001 Corporate Dr", "CITY": "Houston", "COUNTY": "Harris", "ADDRESS": "7001 Corporate Dr Stu. 120", "ZIP": "77036", "LATITUDE": 29.70354200327, "LONGITUDE": -95.5515111217048, "PFIZER_AVAILABLE": 0, "MODERNA_AVAILABLE": 150, "VACCINES_AVAILABLE": 150, "Total_Shipped": 800, "PublicPhone": "713-773-0803", "WEBSITE": "www.hopechc.org", "RemoveRecord": null, "LAST_UPDATE_VAC": "02/25/2021      ", "LAST_UPDATE_TIME_VAC": "14:21:19        ", "marker-symbol": "circle-15", "marker-color": "#228B22"}}, {"type": "Feature", "geometry": {"type": "Point", "coordinates": [-100.536487717731, 36.4601770699411]}, "properties": {"OBJECTID": 2121, "NAME": "Teare Memorial Clinic", "TYPE": "Medical Practice", "TSA": null, "STREET": "146 N Pioneer", "CITY": "Booker", "COUNTY": "Lipscomb", "ADDRESS": "146 N Pioneer", "ZIP": "79005", "LATITUDE": 36.4601770699411, "LONGITUDE": -100.536487717731, "PFIZER_AVAILABLE": 0, "MODERNA_AVAILABLE": 20, "VACCINES_AVAILABLE": 20, "Total_Shipped": 200, "PublicPhone": "(806) 658-4531", "WEBSITE": null, "RemoveRecord": null, "LAST_UPDATE_VAC": "02/25/2021      ", "LAST_UPDATE_TIME_VAC": "12:26:49        ", "marker-symbol": "circle-15", "marker-color": "#228B22"}}, {"type": "Feature", "geometry": {"type": "Point", "coordinates": [-99.7523159030409, 34.2917297377974]}, "properties": {"OBJECTID": 2128, "NAME": "United Pharmacy 514", "TYPE": "Pharmacy", "TSA": null, "STREET": "1000 W 11th St", "CITY": "Quanah", "COUNTY": "Hardeman", "ADDRESS": "1000 W 11th St", "ZIP": "79252", "LATITUDE": 34.2917297377974, "LONGITUDE": -99.7523159030409, "PFIZER_AVAILABLE": 0, "MODERNA_AVAILABLE": 10, "VACCINES_AVAILABLE": 10, "Total_Shipped": 400, "PublicPhone": null, "WEBSITE": null, "RemoveRecord": null, "LAST_UPDATE_VAC": "02/25/2021      ", "LAST_UPDATE_TIME_VAC": "15:35:36        ", "marker-symbol": "circle-15", "marker-color": "#228B22"}}, {"type": "Feature", "geometry": {"type": "Point", "coordinates": [-97.9673357112182, 29.8594699613097]}, "properties": {"OBJECTID": 2131, "NAME": "San Marcos Family Medicine", "TYPE": "Medical Practice", "TSA": null, "STREET": "2406 Hunter Rd", "CITY": "San Marcos", "COUNTY": "Hays", "ADDRESS": "2406 Hunter Rd", "ZIP": "78666", "LATITUDE": 29.8594699613097, "LONGITUDE": -97.9673357112182, "PFIZER_AVAILABLE": 0, "MODERNA_AVAILABLE": 23, "VACCINES_AVAILABLE": 23, "Total_Shipped": 1000, "PublicPhone": "(512) 396-7686", "WEBSITE": "http://www.smfm.net/", "RemoveRecord": null, "LAST_UPDATE_VAC": "02/19/2021      ", "LAST_UPDATE_TIME_VAC": "22:06:07        ", "marker-symbol": "circle-15", "marker-color": "#228B22"}}, {"type": "Feature", "geometry": {"type": "Point", "coordinates": [-99.2478079624697, 33.5900091396598]}, "properties": {"OBJECTID": 2133, "NAME": "Seymour Hospital Rural Health Clinic", "TYPE": "Community Clinic", "TSA": null, "STREET": "201 Stadium Dr", "CITY": "Seymour", "COUNTY": "Baylor", "ADDRESS": "201 Stadium Dr", "ZIP": "76380", "LATITUDE": 33.5900091396598, "LONGITUDE": -99.2478079624697, "PFIZER_AVAILABLE": 0, "MODERNA_AVAILABLE": 30, "VACCINES_AVAILABLE": 30, "Total_Shipped": 2550, "PublicPhone": "(940) 889-5583", "WEBSITE": "http://seymourhospital.com/", "RemoveRecord": null, "LAST_UPDATE_VAC": "02/24/2021      ", "LAST_UPDATE_TIME_VAC": "16:23:52        ", "marker-symbol": "circle-15", "marker-color": "#228B22"}}, {"type": "Feature", "geometry": {"type": "Point", "coordinates": [-99.2883039, 32.7316832]}, "properties": {"OBJECTID": 2135, "NAME": "ResourceCare Albany", "TYPE": "Medical Practice", "TSA": null, "STREET": "725 Pate St", "CITY": "Albany", "COUNTY": "Shackelford", "ADDRESS": "725 Pate Street, Albany, TX, USA", "ZIP": "76430", "LATITUDE": 32.7316832, "LONGITUDE": -99.2883039, "PFIZER_AVAILABLE": 0, "MODERNA_AVAILABLE": 150, "VACCINES_AVAILABLE": 150, "Total_Shipped": 300, "PublicPhone": "(254) 559-7215", "WEBSITE": null, "RemoveRecord": null, "LAST_UPDATE_VAC": "02/24/2021      ", "LAST_UPDATE_TIME_VAC": "19:23:14        ", "marker-symbol": "circle-15", "marker-color": "#228B22"}}, {"type": "Feature", "geometry": {"type": "Point", "coordinates": [-99.2690737, 26.9016278]}, "properties": {"OBJECTID": 2146, "NAME": "Gateway Community Health Center -Zapata", "TYPE": "Community Clinic", "TSA": null, "STREET": "N. Rathmell ", "CITY": "Zapata", "COUNTY": "Zapata", "ADDRESS": "210 N Rathmell Ave", "ZIP": "78076", "LATITUDE": 26.9016278, "LONGITUDE": -99.2690737, "PFIZER_AVAILABLE": 0, "MODERNA_AVAILABLE": 340, "VACCINES_AVAILABLE": 340, "Total_Shipped": 400, "PublicPhone": "956-523-3645", "WEBSITE": null, "RemoveRecord": null, "LAST_UPDATE_VAC": "02/25/2021      ", "LAST_UPDATE_TIME_VAC": "14:30:05        ", "marker-symbol": "circle-15", "marker-color": "#228B22"}}, {"type": "Feature", "geometry": {"type": "Point", "coordinates": [-99.7443160598511, 33.1578836953221]}, "properties": {"OBJECTID": 2160, "NAME": "Haskell Memorial Hospital Clinic", "TYPE": "Other", "TSA": null, "STREET": "1400 South 1st Street", "CITY": "Haskell", "COUNTY": "Haskell", "ADDRESS": "1400 South 1st Street", "ZIP": "79521", "LATITUDE": 33.1578836953221, "LONGITUDE": -99.7443160598511, "PFIZER_AVAILABLE": 0, "MODERNA_AVAILABLE": 70, "VACCINES_AVAILABLE": 70, "Total_Shipped": 100, "PublicPhone": "940-864-8513", "WEBSITE": null, "RemoveRecord": null, "LAST_UPDATE_VAC": "02/25/2021      ", "LAST_UPDATE_TIME_VAC": "17:04:37        ", "marker-symbol": "circle-15", "marker-color": "#228B22"}}, {"type": "Feature", "geometry": {"type": "Point", "coordinates": [-95.33868, 29.71953]}, "properties": {"OBJECTID": 2169, "NAME": "Lone Star Circle Of Care  At The University Of Houston", "TYPE": "Other", "TSA": null, "STREET": null, "CITY": "Houston", "COUNTY": "Harris", "ADDRESS": "4849 Calhoun Road", "ZIP": "77204", "LATITUDE": 29.71953, "LONGITUDE": -95.33868, "PFIZER_AVAILABLE": 0, "MODERNA_AVAILABLE": 300, "VACCINES_AVAILABLE": 300, "Total_Shipped": 600, "PublicPhone": "877-800-5722", "WEBSITE": "www.lonestarcares.org", "RemoveRecord": null, "LAST_UPDATE_VAC": "02/25/2021      ", "LAST_UPDATE_TIME_VAC": "06:58:46        ", "marker-symbol": "circle-15", "marker-color": "#228B22"}}, {"type": "Feature", "geometry": {"type": "Point", "coordinates": [-96.4630472607273, 32.9307938561837]}, "properties": {"OBJECTID": 2183, "NAME": "The Health Center Of Helping Hands", "TYPE": "Community Clinic", "TSA": null, "STREET": "401 W Rusk", "CITY": "Rockwall", "COUNTY": "Rockwall", "ADDRESS": "401 W Rusk", "ZIP": "75087", "LATITUDE": 32.9307938561837, "LONGITUDE": -96.4630472607273, "PFIZER_AVAILABLE": 0, "MODERNA_AVAILABLE": 1000, "VACCINES_AVAILABLE": 1000, "Total_Shipped": 3945, "PublicPhone": null, "WEBSITE": null, "RemoveRecord": null, "LAST_UPDATE_VAC": "02/25/2021      ", "LAST_UPDATE_TIME_VAC": "08:49:20        ", "marker-symbol": "circle-15", "marker-color": "#228B22"}}, {"type": "Feature", "geometry": {"type": "Point", "coordinates": [-94.5893989757585, 32.5087342003867]}, "properties": {"OBJECTID": 2200, "NAME": "Brookshires Pharmacy 130", "TYPE": "Pharmacy", "TSA": null, "STREET": "590 W Main St", "CITY": "Hallsville", "COUNTY": "Harrison", "ADDRESS": "590 W Main St", "ZIP": "75650", "LATITUDE": 32.5087342003867, "LONGITUDE": -94.5893989757585, "PFIZER_AVAILABLE": 0, "MODERNA_AVAILABLE": 300, "VACCINES_AVAILABLE": 300, "Total_Shipped": 1100, "PublicPhone": "(903) 668-1409", "WEBSITE": "https://www.brookshires.com/covid-19-information", "RemoveRecord": null, "LAST_UPDATE_VAC": "02/25/2021      ", "LAST_UPDATE_TIME_VAC": "08:56:54        ", "marker-symbol": "circle-15", "marker-color": "#228B22"}}, {"type": "Feature", "geometry": {"type": "Point", "coordinates": [-98.6074729722959, 31.8973625413595]}, "properties": {"OBJECTID": 2214, "NAME": "Brookshires Pharmacy 93", "TYPE": "Pharmacy", "TSA": null, "STREET": "400 W Central Ave", "CITY": "Comanche", "COUNTY": "Comanche", "ADDRESS": "400 W Central Ave", "ZIP": "76442", "LATITUDE": 31.8973625413595, "LONGITUDE": -98.6074729722959, "PFIZER_AVAILABLE": 0, "MODERNA_AVAILABLE": 50, "VACCINES_AVAILABLE": 50, "Total_Shipped": 300, "PublicPhone": "(325) 356-5276", "WEBSITE": "https://www.brookshires.com/covid-19-information", "RemoveRecord": null, "LAST_UPDATE_VAC": "02/25/2021      ", "LAST_UPDATE_TIME_VAC": "16:31:03        ", "marker-symbol": "circle-15", "marker-color": "#228B22"}}, {"type": "Feature", "geometry": {"type": "Point", "coordinates": [-95.4714771059675, 32.3097768203867]}, "properties": {"OBJECTID": 2219, "NAME": "Brookshires Pharmacy 84", "TYPE": "Pharmacy", "TSA": null, "STREET": "703 Hwy 31 E", "CITY": "Chandler", "COUNTY": "Henderson", "ADDRESS": "703 Hwy 31 E", "ZIP": "75758", "LATITUDE": 32.3097768203867, "LONGITUDE": -95.4714771059675, "PFIZER_AVAILABLE": 0, "MODERNA_AVAILABLE": 110, "VACCINES_AVAILABLE": 110, "Total_Shipped": 500, "PublicPhone": "(903) 849-4090", "WEBSITE": "https://www.brookshires.com/pharmacy-wellness", "RemoveRecord": null, "LAST_UPDATE_VAC": "02/25/2021      ", "LAST_UPDATE_TIME_VAC": "16:13:05        ", "marker-symbol": "circle-15", "marker-color": "#228B22"}}, {"type": "Feature", "geometry": {"type": "Point", "coordinates": [-96.1096975096084, 33.1049429965694]}, "properties": {"OBJECTID": 2222, "NAME": "Brookshires Pharmacy 74", "TYPE": "Pharmacy", "TSA": null, "STREET": "6410 Wesley St", "CITY": "Greenville", "COUNTY": "Hunt", "ADDRESS": "6410 Wesley St", "ZIP": "75402", "LATITUDE": 33.1049429965694, "LONGITUDE": -96.1096975096084, "PFIZER_AVAILABLE": 0, "MODERNA_AVAILABLE": 60, "VACCINES_AVAILABLE": 60, "Total_Shipped": 300, "PublicPhone": "(903) 455-1076", "WEBSITE": "https://www.brookshires.com/covid-19-information", "RemoveRecord": null, "LAST_UPDATE_VAC": "02/24/2021      ", "LAST_UPDATE_TIME_VAC": "18:15:26        ", "marker-symbol": "circle-15", "marker-color": "#228B22"}}, {"type": "Feature", "geometry": {"type": "Point", "coordinates": [-95.4846478418841, 32.6765049075133]}, "properties": {"OBJECTID": 2243, "NAME": "Brookshires Pharmacy 31", "TYPE": "Pharmacy", "TSA": null, "STREET": "1224 N Pacific St", "CITY": "Mineola", "COUNTY": "Wood", "ADDRESS": "1224 N Pacific St", "ZIP": "75773", "LATITUDE": 32.6765049075133, "LONGITUDE": -95.4846478418841, "PFIZER_AVAILABLE": 0, "MODERNA_AVAILABLE": 180, "VACCINES_AVAILABLE": 180, "Total_Shipped": 600, "PublicPhone": "(903) 569-5504", "WEBSITE": "https://www.brookshires.com/covid-19-information", "RemoveRecord": null, "LAST_UPDATE_VAC": "02/25/2021      ", "LAST_UPDATE_TIME_VAC": "19:09:51        ", "marker-symbol": "circle-15", "marker-color": "#228B22"}}, {"type": "Feature", "geometry": {"type": "Point", "coordinates": [-96.0195519849749, 32.708402533414]}, "properties": {"OBJECTID": 2245, "NAME": "Brookshires Pharmacy 19", "TYPE": "Pharmacy", "TSA": null, "STREET": "1105 W South Commerce St", "CITY": "Wills Point", "COUNTY": "Van Zandt", "ADDRESS": "1105 W South Commerce St", "ZIP": "75169", "LATITUDE": 32.708402533414, "LONGITUDE": -96.0195519849749, "PFIZER_AVAILABLE": 0, "MODERNA_AVAILABLE": 100, "VACCINES_AVAILABLE": 100, "Total_Shipped": 300, "PublicPhone": "(903) 873-8237", "WEBSITE": "https://www.brookshires.com/covid-19-information", "RemoveRecord": null, "LAST_UPDATE_VAC": "02/25/2021      ", "LAST_UPDATE_TIME_VAC": "18:16:18        ", "marker-symbol": "circle-15", "marker-color": "#228B22"}}, {"type": "Feature", "geometry": {"type": "Point", "coordinates": [-95.4010922533465, 29.7230652997843]}, "properties": {"OBJECTID": 2273, "NAME": "Medical Clinic Of Houston Houston 170", "TYPE": "Other", "TSA": null, "STREET": "1701 Sunset Blvd", "CITY": "Houston", "COUNTY": "Harris", "ADDRESS": "1701 Sunset Blvd", "ZIP": "77005", "LATITUDE": 29.7230652997843, "LONGITUDE": -95.4010922533465, "PFIZER_AVAILABLE": 0, "MODERNA_AVAILABLE": 50, "VACCINES_AVAILABLE": 50, "Total_Shipped": 2000, "PublicPhone": "(713) 526-5511", "WEBSITE": "https://mchllp.com/", "RemoveRecord": null, "LAST_UPDATE_VAC": "02/12/2021      ", "LAST_UPDATE_TIME_VAC": "22:53:46        ", "marker-symbol": "circle-15", "marker-color": "#228B22"}}, {"type": "Feature", "geometry": {"type": "Point", "coordinates": [-98.5815821115773, 29.5147391732387]}, "properties": {"OBJECTID": 2305, "NAME": "University Of Tx Medicine", "TYPE": "Other", "TSA": null, "STREET": "8300 Floyd Curl Dr", "CITY": "San Antonio", "COUNTY": "Bexar", "ADDRESS": "8300 Floyd Curl Dr", "ZIP": "78229", "LATITUDE": 29.5147391732387, "LONGITUDE": -98.5815821115773, "PFIZER_AVAILABLE": 150, "MODERNA_AVAILABLE": 0, "VACCINES_AVAILABLE": 150, "Total_Shipped": 5000, "PublicPhone": "(512) 495-5555", "WEBSITE": "https://dellmed.utexas.edu/", "RemoveRecord": null, "LAST_UPDATE_VAC": "02/25/2021      ", "LAST_UPDATE_TIME_VAC": "06:57:32        ", "marker-symbol": "circle-15", "marker-color": "#228B22"}}, {"type": "Feature", "geometry": {"type": "Point", "coordinates": [-99.4895236388727, 32.4124483521423]}, "properties": {"OBJECTID": 2340, "NAME": "ResourceCare Clyde", "TYPE": "Medical Practice", "TSA": null, "STREET": "1712 N Access Rd", "CITY": "Clyde", "COUNTY": "Callahan", "ADDRESS": "1712 N Access Rd", "ZIP": "79510", "LATITUDE": 32.4124483521423, "LONGITUDE": -99.4895236388727, "PFIZER_AVAILABLE": 0, "MODERNA_AVAILABLE": 100, "VACCINES_AVAILABLE": 100, "Total_Shipped": 200, "PublicPhone": null, "WEBSITE": null, "RemoveRecord": null, "LAST_UPDATE_VAC": "02/24/2021      ", "LAST_UPDATE_TIME_VAC": "19:31:09        ", "marker-symbol": "circle-15", "marker-color": "#228B22"}}, {"type": "Feature", "geometry": {"type": "Point", "coordinates": [-99.1650301, 32.1230777]}, "properties": {"OBJECTID": 2343, "NAME": "ResourceCare Cross Plains", "TYPE": "Medical Practice", "TSA": null, "STREET": "301 South Main Street", "CITY": "Cross Plains", "COUNTY": "Callahan", "ADDRESS": "301 South Main Street, Cross Plains, TX, USA", "ZIP": "76443", "LATITUDE": 32.1230777, "LONGITUDE": -99.1650301, "PFIZER_AVAILABLE": 0, "MODERNA_AVAILABLE": 100, "VACCINES_AVAILABLE": 100, "Total_Shipped": 300, "PublicPhone": "254-725-6650", "WEBSITE": "www.resoucecare.org", "RemoveRecord": null, "LAST_UPDATE_VAC": "02/24/2021      ", "LAST_UPDATE_TIME_VAC": "19:30:25        ", "marker-symbol": "circle-15", "marker-color": "#228B22"}}, {"type": "Feature", "geometry": {"type": "Point", "coordinates": [-96.5176755825605, 29.0410755616803]}, "properties": {"OBJECTID": 2397, "NAME": "Brookshire Brothers Pharmacy 76", "TYPE": "Pharmacy", "TSA": null, "STREET": "305 W York", "CITY": "Ganado", "COUNTY": "Jackson", "ADDRESS": "305 W York", "ZIP": "77962", "LATITUDE": 29.0410755616803, "LONGITUDE": -96.5176755825605, "PFIZER_AVAILABLE": 0, "MODERNA_AVAILABLE": 100, "VACCINES_AVAILABLE": 100, "Total_Shipped": 1100, "PublicPhone": "(361) 771-3590", "WEBSITE": "https://www.brookshirebrothers.com/store-location/store-76", "RemoveRecord": null, "LAST_UPDATE_VAC": "02/25/2021      ", "LAST_UPDATE_TIME_VAC": "08:46:40        ", "marker-symbol": "circle-15", "marker-color": "#228B22"}}, {"type": "Feature", "geometry": {"type": "Point", "coordinates": [-96.2511635942948, 29.9392710703944]}, "properties": {"OBJECTID": 2417, "NAME": "Brookshire Brothers Pharmacy 39", "TYPE": "Pharmacy", "TSA": null, "STREET": "720 S Front St", "CITY": "Bellville", "COUNTY": "Austin", "ADDRESS": "720 S Front St", "ZIP": "77418", "LATITUDE": 29.9392710703944, "LONGITUDE": -96.2511635942948, "PFIZER_AVAILABLE": 0, "MODERNA_AVAILABLE": 200, "VACCINES_AVAILABLE": 200, "Total_Shipped": 1300, "PublicPhone": "(979) 865-8380", "WEBSITE": "https://www.brookshirebrothers.com/store-location/store-39", "RemoveRecord": null, "LAST_UPDATE_VAC": "02/25/2021      ", "LAST_UPDATE_TIME_VAC": "06:12:32        ", "marker-symbol": "circle-15", "marker-color": "#228B22"}}, {"type": "Feature", "geometry": {"type": "Point", "coordinates": [-96.1682182811988, 31.7241325749661]}, "properties": {"OBJECTID": 2458, "NAME": "Brookshire Brothers Pharmacy 10", "TYPE": "Pharmacy", "TSA": null, "STREET": "300 W Us Highway 84", "CITY": "Fairfield", "COUNTY": "Freestone", "ADDRESS": "300 W Us Highway 84", "ZIP": "75840", "LATITUDE": 31.7241325749661, "LONGITUDE": -96.1682182811988, "PFIZER_AVAILABLE": 0, "MODERNA_AVAILABLE": 100, "VACCINES_AVAILABLE": 100, "Total_Shipped": 900, "PublicPhone": "903-389-2455", "WEBSITE": "https://www.brookshires.com/pharmacy-wellness", "RemoveRecord": null, "LAST_UPDATE_VAC": "02/24/2021      ", "LAST_UPDATE_TIME_VAC": "01:10:59        ", "marker-symbol": "circle-15", "marker-color": "#228B22"}}, {"type": "Feature", "geometry": {"type": "Point", "coordinates": [-97.3257625463071, 32.8047660052799]}, "properties": {"OBJECTID": 2474, "NAME": "JPS Diamond Hill Jarvis", "TYPE": "Community Clinic", "TSA": null, "STREET": "3308 Deen Rd", "CITY": "Fort Worth", "COUNTY": "Tarrant", "ADDRESS": "3308 Deen Rd", "ZIP": "76106", "LATITUDE": 32.8047660052799, "LONGITUDE": -97.3257625463071, "PFIZER_AVAILABLE": 186, "MODERNA_AVAILABLE": 0, "VACCINES_AVAILABLE": 186, "Total_Shipped": 1000, "PublicPhone": "(817) 702-1100", "WEBSITE": "https://www.jpshealthnet.org/location/diamond-hill-health-center", "RemoveRecord": null, "LAST_UPDATE_VAC": "02/25/2021      ", "LAST_UPDATE_TIME_VAC": "12:09:59        ", "marker-symbol": "circle-15", "marker-color": "#228B22"}}, {"type": "Feature", "geometry": {"type": "Point", "coordinates": [-97.1203291016905, 32.7064119684497]}, "properties": {"OBJECTID": 2475, "NAME": "Jps Se Tarrant County Med Home", "TYPE": "Community Clinic", "TSA": null, "STREET": "1050 W Arkansas Ln Ste 150", "CITY": "Arlington", "COUNTY": "Tarrant", "ADDRESS": "1050 W Arkansas Ln Ste 150", "ZIP": "76013", "LATITUDE": 32.7064119684497, "LONGITUDE": -97.1203291016905, "PFIZER_AVAILABLE": 200, "MODERNA_AVAILABLE": 0, "VACCINES_AVAILABLE": 200, "Total_Shipped": 4800, "PublicPhone": "(817) 702-1100", "WEBSITE": "http://www.jpshealthnet.org/location/medical-home-southeast-tarrant", "RemoveRecord": null, "LAST_UPDATE_VAC": "02/25/2021      ", "LAST_UPDATE_TIME_VAC": "11:57:52        ", "marker-symbol": "circle-15", "marker-color": "#228B22"}}, {"type": "Feature", "geometry": {"type": "Point", "coordinates": [-95.6444406127171, 29.7427066696438]}, "properties": {"OBJECTID": 2488, "NAME": "West Oaks Urgent Care", "TYPE": "Medical Practice", "TSA": null, "STREET": "2150 Highway 6 S Ste 100", "CITY": "Houston", "COUNTY": "Harris", "ADDRESS": "2150 Highway 6 S Ste 100", "ZIP": "77077", "LATITUDE": 29.7427066696438, "LONGITUDE": -95.6444406127171, "PFIZER_AVAILABLE": 0, "MODERNA_AVAILABLE": 80, "VACCINES_AVAILABLE": 80, "Total_Shipped": 2000, "PublicPhone": "(281) 496-4948", "WEBSITE": "http://www.westoaksurgentcare.net/", "RemoveRecord": null, "LAST_UPDATE_VAC": "02/25/2021      ", "LAST_UPDATE_TIME_VAC": "11:35:13        ", "marker-symbol": "circle-15", "marker-color": "#228B22"}}, {"type": "Feature", "geometry": {"type": "Point", "coordinates": [-95.5492042917613, 29.902984346792]}, "properties": {"OBJECTID": 2490, "NAME": "West Oaks Urgent Care Ii", "TYPE": "Medical Practice", "TSA": null, "STREET": "9138 West Rd", "CITY": "Houston", "COUNTY": "Harris", "ADDRESS": "9138 West Rd", "ZIP": "77064", "LATITUDE": 29.902984346792, "LONGITUDE": -95.5492042917613, "PFIZER_AVAILABLE": 0, "MODERNA_AVAILABLE": 290, "VACCINES_AVAILABLE": 290, "Total_Shipped": 2000, "PublicPhone": "(832) 230-8772", "WEBSITE": "http://www.westoaksurgentcare.net/", "RemoveRecord": null, "LAST_UPDATE_VAC": "02/25/2021      ", "LAST_UPDATE_TIME_VAC": "11:36:04        ", "marker-symbol": "circle-15", "marker-color": "#228B22"}}, {"type": "Feature", "geometry": {"type": "Point", "coordinates": [-95.4027741660378, 29.7091518434274]}, "properties": {"OBJECTID": 2493, "NAME": "Baylor College Of Medicine", "TYPE": "Other", "TSA": null, "STREET": "6620 Main Street", "CITY": "Houston", "COUNTY": "Harris", "ADDRESS": "6620 Main Street", "ZIP": "77030", "LATITUDE": 29.7091518434274, "LONGITUDE": -95.4027741660378, "PFIZER_AVAILABLE": 0, "MODERNA_AVAILABLE": 700, "VACCINES_AVAILABLE": 700, "Total_Shipped": 18180, "PublicPhone": "(713) 798-4951", "WEBSITE": "https://www.bcm.edu/", "RemoveRecord": null, "LAST_UPDATE_VAC": "02/25/2021      ", "LAST_UPDATE_TIME_VAC": "05:25:36        ", "marker-symbol": "circle-15", "marker-color": "#228B22"}}, {"type": "Feature", "geometry": {"type": "Point", "coordinates": [-98.198416902776, 33.8152999867756]}, "properties": {"OBJECTID": 2494, "NAME": "Ccmh Clinic - Henrietta", "TYPE": "Medical Practice", "TSA": null, "STREET": "102 S. Archer st.", "CITY": "Henriettta", "COUNTY": "clay", "ADDRESS": "102 S. Archer st.", "ZIP": "76365", "LATITUDE": 33.8152999867756, "LONGITUDE": -98.198416902776, "PFIZER_AVAILABLE": 0, "MODERNA_AVAILABLE": 100, "VACCINES_AVAILABLE": 100, "Total_Shipped": 300, "PublicPhone": null, "WEBSITE": null, "RemoveRecord": null, "LAST_UPDATE_VAC": "02/24/2021      ", "LAST_UPDATE_TIME_VAC": "15:14:48        ", "marker-symbol": "circle-15", "marker-color": "#228B22"}}, {"type": "Feature", "geometry": {"type": "Point", "coordinates": [-97.2378737347433, 32.7136716419814]}, "properties": {"OBJECTID": 2507, "NAME": "Jps Stop Six Clinic", "TYPE": "Community Clinic", "TSA": null, "STREET": "3301 Stalcup Rd", "CITY": "Fort Worth", "COUNTY": "Tarrant", "ADDRESS": "3301 Stalcup Rd", "ZIP": "76119", "LATITUDE": 32.7136716419814, "LONGITUDE": -97.2378737347433, "PFIZER_AVAILABLE": 240, "MODERNA_AVAILABLE": 0, "VACCINES_AVAILABLE": 240, "Total_Shipped": 800, "PublicPhone": "(817) 702-1100", "WEBSITE": "https://jpshealthnet.org/locations/stop-six-walter-b-barbour-health-center", "RemoveRecord": null, "LAST_UPDATE_VAC": "02/25/2021      ", "LAST_UPDATE_TIME_VAC": "12:07:11        ", "marker-symbol": "circle-15", "marker-color": "#228B22"}}, {"type": "Feature", "geometry": {"type": "Point", "coordinates": [-97.1364694168497, 32.8158963345068]}, "properties": {"OBJECTID": 2508, "NAME": "Jps Northeast Chc", "TYPE": "Community Clinic", "TSA": null, "STREET": "3200 W Euless Blvd", "CITY": "Euless", "COUNTY": "Tarrant", "ADDRESS": "3200 W Euless Blvd", "ZIP": "76040", "LATITUDE": 32.8158963345068, "LONGITUDE": -97.1364694168497, "PFIZER_AVAILABLE": 192, "MODERNA_AVAILABLE": 0, "VACCINES_AVAILABLE": 192, "Total_Shipped": 4000, "PublicPhone": "(817) 702-1100", "WEBSITE": "http://www.jpshealthnet.org/", "RemoveRecord": null, "LAST_UPDATE_VAC": "02/25/2021      ", "LAST_UPDATE_TIME_VAC": "12:00:27        ", "marker-symbol": "circle-15", "marker-color": "#228B22"}}, {"type": "Feature", "geometry": {"type": "Point", "coordinates": [-98.1736485605787, 29.1597535652613]}, "properties": {"OBJECTID": 2510, "NAME": "Connally Memorial Family Practice Main", "TYPE": "Community Clinic", "TSA": null, "STREET": "497 10th Street Suite 101", "CITY": "Floresville", "COUNTY": "Wilson", "ADDRESS": "497 10th Street Suite 101", "ZIP": "78114", "LATITUDE": 29.1597535652613, "LONGITUDE": -98.1736485605787, "PFIZER_AVAILABLE": 0, "MODERNA_AVAILABLE": 20, "VACCINES_AVAILABLE": 20, "Total_Shipped": 600, "PublicPhone": "(830) 393-1400", "WEBSITE": "http://www.connallymmc.org/", "RemoveRecord": null, "LAST_UPDATE_VAC": "02/25/2021      ", "LAST_UPDATE_TIME_VAC": "08:27:14        ", "marker-symbol": "circle-15", "marker-color": "#228B22"}}, {"type": "Feature", "geometry": {"type": "Point", "coordinates": [-98.4356099956146, 26.2421445409738]}, "properties": {"OBJECTID": 2545, "NAME": "Eduardo Guzman Md", "TYPE": "Medical Practice", "TSA": null, "STREET": "2308 Hwy 83 Ste F", "CITY": "Penitas", "COUNTY": "Hidalgo", "ADDRESS": "2308 Hwy 83 Ste F", "ZIP": "78576", "LATITUDE": 26.2421445409738, "LONGITUDE": -98.4356099956146, "PFIZER_AVAILABLE": 0, "MODERNA_AVAILABLE": 10, "VACCINES_AVAILABLE": 10, "Total_Shipped": 200, "PublicPhone": "(956) 519-9100", "WEBSITE": "http://eduardo-guzman.poi.place/", "RemoveRecord": null, "LAST_UPDATE_VAC": "02/24/2021      ", "LAST_UPDATE_TIME_VAC": "08:04:48        ", "marker-symbol": "circle-15", "marker-color": "#228B22"}}, {"type": "Feature", "geometry": {"type": "Point", "coordinates": [-97.9850413082098, 30.1670304034683]}, "properties": {"OBJECTID": 2551, "NAME": "First Medical Response Of Texas Inc", "TYPE": "Other", "TSA": null, "STREET": "854 Wild Rose Drive", "CITY": "Austin", "COUNTY": "Hays", "ADDRESS": "854 Wild Rose Drive", "ZIP": "78737", "LATITUDE": 30.1670304034683, "LONGITUDE": -97.9850413082098, "PFIZER_AVAILABLE": 0, "MODERNA_AVAILABLE": 110, "VACCINES_AVAILABLE": 110, "Total_Shipped": 3800, "PublicPhone": "(512) 233-4929", "WEBSITE": "https://www.firstmedicalresponse.org/", "RemoveRecord": null, "LAST_UPDATE_VAC": "02/25/2021      ", "LAST_UPDATE_TIME_VAC": "19:02:59        ", "marker-symbol": "circle-15", "marker-color": "#228B22"}}, {"type": "Feature", "geometry": {"type": "Point", "coordinates": [-98.2406922887269, 29.2254635594903]}, "properties": {"OBJECTID": 2552, "NAME": "Connally Memorial Family Practice North", "TYPE": "Community Clinic", "TSA": null, "STREET": "6511 Us Highway 181 N Ste A", "CITY": "Floresville", "COUNTY": "Wilson", "ADDRESS": "6511 Us Highway 181 N Ste A", "ZIP": "78114", "LATITUDE": 29.2254635594903, "LONGITUDE": -98.2406922887269, "PFIZER_AVAILABLE": 0, "MODERNA_AVAILABLE": 100, "VACCINES_AVAILABLE": 100, "Total_Shipped": 900, "PublicPhone": "(830) 393-1400", "WEBSITE": "http://www.connallymmc.org/", "RemoveRecord": null, "LAST_UPDATE_VAC": "02/25/2021      ", "LAST_UPDATE_TIME_VAC": "09:05:27        ", "marker-symbol": "circle-15", "marker-color": "#228B22"}}, {"type": "Feature", "geometry": {"type": "Point", "coordinates": [-95.6240451781192, 30.0907285558482]}, "properties": {"OBJECTID": 2565, "NAME": "Northwest Houston Heart Center", "TYPE": "Medical Practice", "TSA": null, "STREET": "308 Holderrieth Blvd", "CITY": "Tomball", "COUNTY": "Harris", "ADDRESS": "308 Holderrieth Blvd", "ZIP": "77375", "LATITUDE": 30.0907285558482, "LONGITUDE": -95.6240451781192, "PFIZER_AVAILABLE": 0, "MODERNA_AVAILABLE": 500, "VACCINES_AVAILABLE": 500, "Total_Shipped": 2000, "PublicPhone": "(281) 351-4911", "WEBSITE": "https://houstonheartcenter.com/", "RemoveRecord": null, "LAST_UPDATE_VAC": "02/25/2021      ", "LAST_UPDATE_TIME_VAC": "08:37:59        ", "marker-symbol": "circle-15", "marker-color": "#228B22"}}, {"type": "Feature", "geometry": {"type": "Point", "coordinates": [-98.9298659464949, 29.6080927455835]}, "properties": {"OBJECTID": 2587, "NAME": "Medina Lake Clinic", "TYPE": "Medical Practice", "TSA": null, "STREET": "146 Laurel Vista Dr", "CITY": "Pipe Creek", "COUNTY": "Bandera", "ADDRESS": "146 Laurel Vista Dr", "ZIP": "78063", "LATITUDE": 29.6080927455835, "LONGITUDE": -98.9298659464949, "PFIZER_AVAILABLE": 0, "MODERNA_AVAILABLE": 100, "VACCINES_AVAILABLE": 100, "Total_Shipped": 300, "PublicPhone": "(830) 751-3330", "WEBSITE": "http://www.medinalakeclinic.com/", "RemoveRecord": null, "LAST_UPDATE_VAC": "02/25/2021      ", "LAST_UPDATE_TIME_VAC": "18:00:57        ", "marker-symbol": "circle-15", "marker-color": "#228B22"}}, {"type": "Feature", "geometry": {"type": "Point", "coordinates": [-101.395512484664, 35.6663720149856]}, "properties": {"OBJECTID": 2591, "NAME": "High Plains Family Medicine", "TYPE": "Other", "TSA": null, "STREET": "104 N Bryan St", "CITY": "Borger", "COUNTY": "Hutchinson", "ADDRESS": "104 N Bryan St", "ZIP": "79007", "LATITUDE": 35.6663720149856, "LONGITUDE": -101.395512484664, "PFIZER_AVAILABLE": 0, "MODERNA_AVAILABLE": 194, "VACCINES_AVAILABLE": 194, "Total_Shipped": 200, "PublicPhone": "(806) 274-3627", "WEBSITE": "https://borgerdoc.com/", "RemoveRecord": null, "LAST_UPDATE_VAC": "02/24/2021      ", "LAST_UPDATE_TIME_VAC": "16:12:05        ", "marker-symbol": "circle-15", "marker-color": "#228B22"}}]}